No,ID,名前,場所,緯度,経度,URL,地区,年度
1,a5K7F000001YlPEUA0,穴田池,今治市高部,34.09227778,132.9760278,https://www.city.imabari.ehime.jp/noudo/hazardmap/imabari/imabari_R4_01.pdf?1,今治地区,令和4年度
2,a5K7F000001YlPFUA0,惣浦池,今治市高部,34.09169444,132.9733056,https://www.city.imabari.ehime.jp/noudo/hazardmap/imabari/imabari_R4_02.pdf,今治地区,令和4年度
3,a5K7F000001YlPGUA0,砂場大池,今治市砂場町一丁目,34.10536111,132.9773056,https://www.city.imabari.ehime.jp/noudo/hazardmap/imabari/imabari_R4_03.pdf,今治地区,令和4年度
4,a5K7F000001YlPHUA0,砂場寺地池,今治市砂場町二丁目,34.10633333,132.9781667,https://www.city.imabari.ehime.jp/noudo/hazardmap/imabari/imabari_R4_04.pdf,今治地区,令和4年度
5,a5K7F000001YlPIUA0,大浜中池,今治市大浜町三丁目,34.10033333,132.9808333,https://www.city.imabari.ehime.jp/noudo/hazardmap/imabari/imabari_R4_05.pdf,今治地区,令和4年度
6,a5K7F000001YlPJUA0,神宮池(楠神池),今治市大浜町一丁目,34.09672222,132.9825833,https://www.city.imabari.ehime.jp/noudo/hazardmap/imabari/imabari_R4_06.pdf,今治地区,令和4年度
7,a5K7F000001YlPKUA0,マコモ池,今治市近見町四丁目,34.08716667,132.9823611,https://www.city.imabari.ehime.jp/noudo/hazardmap/imabari/imabari_R4_07.pdf,今治地区,令和4年度
8,a5K7F000001YlPLUA0,カラ池,今治市近見町四丁目,34.08888889,132.9797222,https://www.city.imabari.ehime.jp/noudo/hazardmap/imabari/imabari_R4_08.pdf,今治地区,令和4年度
9,a5K7F000001YlPNUA0,本谷池,今治市近見町五丁目,34.08938889,132.9774444,https://www.city.imabari.ehime.jp/noudo/hazardmap/imabari/imabari_R4_09.pdf,今治地区,令和4年度
10,a5K7F000001YlPOUA0,一丁地池,今治市近見町一丁目,34.09013889,132.9848333,https://www.city.imabari.ehime.jp/noudo/hazardmap/imabari/imabari_R4_10.pdf,今治地区,令和4年度
11,a5K7F000001YlPPUA0,坂本池,今治市近見町三丁目,34.09319444,132.9839722,https://www.city.imabari.ehime.jp/noudo/hazardmap/imabari/imabari_R4_11.pdf,今治地区,令和4年度
12,a5K7F000001YlPQUA0,松本池,今治市近見町三丁目,34.09369444,132.9803611,https://www.city.imabari.ehime.jp/noudo/hazardmap/imabari/imabari_R4_12.pdf?1,今治地区,令和4年度
13,a5K7F000001YlPRUA0,相ノ谷池,今治市近見町一丁目,34.08808333,132.9882222,https://www.city.imabari.ehime.jp/noudo/hazardmap/imabari/imabari_R4_13.pdf,今治地区,令和4年度
14,a5K7F000001YlPSUA0,五丁池,今治市近見町四丁目,34.08638889,132.9830833,https://www.city.imabari.ehime.jp/noudo/hazardmap/imabari/imabari_R4_14.pdf?1,今治地区,令和4年度
15,a5K7F000001YlPTUA0,大浜池（神社池）,今治市大浜町三丁目,34.09888889,132.9817222,https://www.city.imabari.ehime.jp/noudo/hazardmap/imabari/imabari_R4_15.pdf,今治地区,令和4年度
16,a5K7F000001YlPUUA0,山ノ奥池,今治市近見町五丁目,34.08638889,132.9803333,https://www.city.imabari.ehime.jp/noudo/hazardmap/imabari/imabari_R4_16.pdf?1,今治地区,令和4年度
17,a5K7F000001YlPVUA0,坊主谷池,今治市近見町五丁目,34.08705556,132.9791944,https://www.city.imabari.ehime.jp/noudo/hazardmap/imabari/imabari_R4_17.pdf?1,今治地区,令和4年度
18,a5K7F000001YlPYUA0,相谷池,今治市石井町五丁目,34.07547222,132.985,https://www.city.imabari.ehime.jp/noudo/hazardmap/imabari/imabari_R4_18.pdf?1,今治地区,令和4年度
19,a5K7F000001YlPZUA0,新堂池,今治市石井町五丁目,34.07638889,132.9842778,https://www.city.imabari.ehime.jp/noudo/hazardmap/imabari/imabari_R4_19.pdf?1,今治地区,令和4年度
20,a5K7F000001YlPaUAK,蛇ヶ谷池,今治市石井町五丁目,34.07994444,132.9797778,https://www.city.imabari.ehime.jp/noudo/hazardmap/imabari/imabari_R4_20.pdf,今治地区,令和4年度
21,a5K7F000001YlPbUAK,小舟池,今治市高地町一丁目,34.06911111,132.9832778,https://www.city.imabari.ehime.jp/noudo/hazardmap/imabari/imabari_R4_21.pdf,今治地区,令和4年度
22,a5K7F000001YlPcUAK,大門池,今治市高地町二丁目,34.07716667,132.9764444,https://www.city.imabari.ehime.jp/noudo/hazardmap/imabari/imabari_R4_22.pdf,今治地区,令和4年度
23,a5K7F000001YlPeUAK,押谷池,今治市高地町二丁目,34.07677778,132.9808611,https://www.city.imabari.ehime.jp/noudo/hazardmap/imabari/imabari_R4_23.pdf,今治地区,令和4年度
24,a5K7F000001YlRtUAK,小坂池,今治市宅間,34.079,132.9344444,https://www.city.imabari.ehime.jp/noudo/hazardmap/imabari/imabari_R4_24.pdf,今治地区,令和4年度
28,a5K7F000001YlNPUA0,本谷池,今治市長沢,33.99444444,133.0401111,https://www.city.imabari.ehime.jp/noudo/hazardmap/imabari/imabari_R3_01.pdf,今治地区,令和3年度
29,a5K7F000001YlNQUA0,茅ヶ谷池,今治市長沢,34.00497222,133.03425,https://www.city.imabari.ehime.jp/noudo/hazardmap/imabari/imabari_R3_02.pdf,今治地区,令和3年度
30,a5K7F000001YlNRUA0,二ノ谷池,今治市長沢,34.00847222,133.0344444,https://www.city.imabari.ehime.jp/noudo/hazardmap/imabari/imabari_R3_03.pdf,今治地区,令和3年度
31,a5K7F000001YlNSUA0,菜切谷池,今治市長沢,34.00513889,133.0397778,https://www.city.imabari.ehime.jp/noudo/hazardmap/imabari/imabari_R3_04.pdf,今治地区,令和3年度
32,a5K7F000001YlNTUA0,冷尻池,今治市長沢,33.99830556,133.0370556,https://www.city.imabari.ehime.jp/noudo/hazardmap/imabari/imabari_R3_05.pdf,今治地区,令和3年度
33,a5K7F000001YlNUUA0,要ヶ谷下池,今治市長沢,33.99963889,133.0351667,https://www.city.imabari.ehime.jp/noudo/hazardmap/imabari/imabari_R3_06.pdf,今治地区,令和3年度
34,a5K7F000001YlNVUA0,要ヶ谷上池,今治市長沢,33.99930556,133.0345833,https://www.city.imabari.ehime.jp/noudo/hazardmap/imabari/imabari_R3_07.pdf,今治地区,令和3年度
35,a5K7F000001YlNWUA0,地蔵寺池,今治市長沢,34.00316667,133.0339444,https://www.city.imabari.ehime.jp/noudo/hazardmap/imabari/imabari_R3_08.pdf,今治地区,令和3年度
36,a5K7F000001YlNXUA0,三の谷池,今治市長沢,34.00719444,133.0345556,https://www.city.imabari.ehime.jp/noudo/hazardmap/imabari/imabari_R3_09.pdf,今治地区,令和3年度
37,a5K7F000001YlNYUA0,沖浦池,今治市孫兵衛作,33.99375,133.0566389,https://www.city.imabari.ehime.jp/noudo/hazardmap/imabari/imabari_R3_10.pdf,今治地区,令和3年度
38,a5K7F000001YlNZUA0,小宮池,今治市登畑,34.01444444,133.0170556,https://www.city.imabari.ehime.jp/noudo/hazardmap/imabari/imabari_R3_11.pdf,今治地区,令和3年度
39,a5K7F000001YlNbUAK,長谷池,今治市旦,34.01469444,133.0258889,https://www.city.imabari.ehime.jp/noudo/hazardmap/imabari/imabari_R3_12.pdf,今治地区,令和3年度
40,a5K7F000001YlNcUAK,旦蓮池,今治市旦,34.01516667,133.0298889,https://www.city.imabari.ehime.jp/noudo/hazardmap/imabari/imabari_R3_13.pdf,今治地区,令和3年度
41,a5K7F000001YlNdUAK,上小谷池,今治市旦,34.01397222,133.0243333,https://www.city.imabari.ehime.jp/noudo/hazardmap/imabari/imabari_R3_14.pdf,今治地区,令和3年度
42,a5K7F000001YlNeUAK,下大谷池,今治市旦,34.0135,133.0239722,https://www.city.imabari.ehime.jp/noudo/hazardmap/imabari/imabari_R3_15.pdf,今治地区,令和3年度
43,a5K7F000001YlNfUAK,上大谷池,今治市旦,34.01272222,133.0238056,https://www.city.imabari.ehime.jp/noudo/hazardmap/imabari/imabari_R3_16.pdf,今治地区,令和3年度
44,a5K7F000001YlNgUAK,下段原池,今治市旦,34.01566667,133.0215,https://www.city.imabari.ehime.jp/noudo/hazardmap/imabari/imabari_R3_17.pdf,今治地区,令和3年度
45,a5K7F000001YlNhUAK,上段原池,今治市旦,34.01433333,133.0216667,https://www.city.imabari.ehime.jp/noudo/hazardmap/imabari/imabari_R3_18.pdf,今治地区,令和3年度
46,a5K7F000001YlNiUAK,段原池,今治市旦,34.01508333,133.0215278,https://www.city.imabari.ehime.jp/noudo/hazardmap/imabari/imabari_R3_19.pdf,今治地区,令和3年度
47,a5K7F000001YlNmUAK,又右衛門谷池,今治市古国分二丁目,34.03383333,133.03325,https://www.city.imabari.ehime.jp/noudo/hazardmap/imabari/imabari_R3_20.pdf,今治地区,令和3年度
48,a5K7F000001YlNnUAK,カラキ谷池,今治市国分四丁目,34.02838889,133.0279722,https://www.city.imabari.ehime.jp/noudo/hazardmap/imabari/imabari_R3_21.pdf,今治地区,令和3年度
49,a5K7F000001YlNoUAK,雲久池,今治市国分五丁目,34.02338889,133.0306667,https://www.city.imabari.ehime.jp/noudo/hazardmap/imabari/imabari_R3_22.pdf,今治地区,令和3年度
50,a5K7F000001YlNpUAK,開地池,今治市古国分三丁目,34.025,133.0356944,https://www.city.imabari.ehime.jp/noudo/hazardmap/imabari/imabari_R3_23.pdf,今治地区,令和3年度
51,a5K7F000001YlNrUAK,小谷下池,今治市古国分二丁目,34.03166667,133.0349444,https://www.city.imabari.ehime.jp/noudo/hazardmap/imabari/imabari_R3_24.pdf,今治地区,令和3年度
52,a5K7F000001YlNsUAK,小谷上池,今治市古国分二丁目,34.03158333,133.0342222,https://www.city.imabari.ehime.jp/noudo/hazardmap/imabari/imabari_R3_25.pdf,今治地区,令和3年度
53,a5K7F000001YlNtUAK,土居下池,今治市新谷,34.01733333,132.9886667,https://www.city.imabari.ehime.jp/noudo/hazardmap/imabari/imabari_R3_26.pdf,今治地区,令和3年度
54,a5K7F000001YlNuUAK,宮下池,今治市新谷,34.01475,132.9895556,https://www.city.imabari.ehime.jp/noudo/hazardmap/imabari/imabari_R3_27.pdf,今治地区,令和3年度
55,a5K7F000001YlNvUAK,新谷中池,今治市新谷,34.01947222,132.9846389,https://www.city.imabari.ehime.jp/noudo/hazardmap/imabari/imabari_R3_28.pdf,今治地区,令和3年度
56,a5K7F000001YlNwUAK,寺前池,今治市新谷,34.01980556,132.9878056,https://www.city.imabari.ehime.jp/noudo/hazardmap/imabari/imabari_R3_29.pdf,今治地区,令和3年度
57,a5K7F000001YlNxUAK,脇池,今治市新谷,34.02130556,132.9836389,https://www.city.imabari.ehime.jp/noudo/hazardmap/imabari/imabari_R3_30.pdf,今治地区,令和3年度
58,a5K7F000001YlNyUAK,古新谷池,今治市新谷,34.02047222,132.9855556,https://www.city.imabari.ehime.jp/noudo/hazardmap/imabari/imabari_R3_31.pdf,今治地区,令和3年度
59,a5K7F000001YlNzUAK,弓田池,今治市新谷,34.02216667,132.9923611,https://www.city.imabari.ehime.jp/noudo/hazardmap/imabari/imabari_R3_32.pdf,今治地区,令和3年度
60,a5K7F000001YlO0UAK,道成寺池,今治市新谷,34.02577778,132.9919722,https://www.city.imabari.ehime.jp/noudo/hazardmap/imabari/imabari_R3_33.pdf,今治地区,令和3年度
61,a5K7F000001YlO2UAK,土居上池,今治市新谷,34.01613889,132.9876944,https://www.city.imabari.ehime.jp/noudo/hazardmap/imabari/imabari_R3_34.pdf,今治地区,令和3年度
62,a5K7F000001YlO3UAK,竹谷池,今治市新谷,34.01377778,132.9893056,https://www.city.imabari.ehime.jp/noudo/hazardmap/imabari/imabari_R3_35.pdf,今治地区,令和3年度
63,a5K7F000001YlO4UAK,前谷池,今治市新谷,34.01958333,132.9835,https://www.city.imabari.ehime.jp/noudo/hazardmap/imabari/imabari_R3_36.pdf,今治地区,令和3年度
64,a5K7F000001YlO5UAK,新谷平底池,今治市新谷,34.01994444,132.9825278,https://www.city.imabari.ehime.jp/noudo/hazardmap/imabari/imabari_R3_37.pdf,今治地区,令和3年度
65,a5K7F000001YlO6UAK,楠谷池,今治市町谷,34.01805556,133.0027778,https://www.city.imabari.ehime.jp/noudo/hazardmap/imabari/imabari_R3_38.pdf,今治地区,令和3年度
66,a5K7F000001YlO8UAK,日浅池,今治市五十嵐,34.02733333,132.9824722,https://www.city.imabari.ehime.jp/noudo/hazardmap/imabari/imabari_R3_39.pdf,今治地区,令和3年度
67,a5K7F000001YlO9UAK,前池,今治市五十嵐,34.026,132.9829722,https://www.city.imabari.ehime.jp/noudo/hazardmap/imabari/imabari_R3_40.pdf,今治地区,令和3年度
68,a5K7F000001YlOAUA0,前上池,今治市五十嵐,34.02608333,132.9823889,https://www.city.imabari.ehime.jp/noudo/hazardmap/imabari/imabari_R3_41.pdf,今治地区,令和3年度
69,a5K7F000001YlOBUA0,平尾池,今治市高橋,34.03638889,132.9603333,https://www.city.imabari.ehime.jp/noudo/hazardmap/imabari/imabari_R3_42.pdf,今治地区,令和3年度
70,a5K7F000001YlOCUA0,高橋新池,今治市高橋,34.03530556,132.9587778,https://www.city.imabari.ehime.jp/noudo/hazardmap/imabari/imabari_R3_43.pdf,今治地区,令和3年度
71,a5K7F000001YlOEUA0,多々羅池,今治市矢田,34.04769444,132.9633333,https://www.city.imabari.ehime.jp/noudo/hazardmap/imabari/imabari_R3_44.pdf,今治地区,令和3年度
72,a5K7F000001YlOFUA0,新池（矢田）,今治市矢田,34.04172222,132.95525,https://www.city.imabari.ehime.jp/noudo/hazardmap/imabari/imabari_R3_45.pdf,今治地区,令和3年度
73,a5K7F000001YlOGUA0,久瀬ヶ谷池,今治市矢田,34.05722222,132.96425,https://www.city.imabari.ehime.jp/noudo/hazardmap/imabari/imabari_R3_46.pdf,今治地区,令和3年度
74,a5K7F000001YlOHUA0,蛇池,今治市矢田,34.05208333,132.9670833,https://www.city.imabari.ehime.jp/noudo/hazardmap/imabari/imabari_R3_47.pdf,今治地区,令和3年度
75,a5K7F000001YlOIUA0,小杉原池,今治市神宮,34.05175,132.95975,https://www.city.imabari.ehime.jp/noudo/hazardmap/imabari/imabari_R3_48.pdf,今治地区,令和3年度
76,a5K7F000001YlOJUA0,池ノ谷池,今治市神宮,34.05055556,132.9565556,https://www.city.imabari.ehime.jp/noudo/hazardmap/imabari/imabari_R3_49.pdf,今治地区,令和3年度
77,a5K7F000001YlOKUA0,浦ノ谷池,今治市神宮,34.05438889,132.9566667,https://www.city.imabari.ehime.jp/noudo/hazardmap/imabari/imabari_R3_50.pdf,今治地区,令和3年度
78,a5K7F000001YlOLUA0,上坂池,今治市神宮,34.05355556,132.9530556,https://www.city.imabari.ehime.jp/noudo/hazardmap/imabari/imabari_R3_51.pdf,今治地区,令和3年度
79,a5K7F000001YlOMUA0,串戸池,今治市神宮,34.06011111,132.9553611,https://www.city.imabari.ehime.jp/noudo/hazardmap/imabari/imabari_R3_52.pdf,今治地区,令和3年度
80,a5K7F000001YlOPUA0,釜口池,今治市野間,34.06102778,132.9511389,https://www.city.imabari.ehime.jp/noudo/hazardmap/imabari/imabari_R3_53.pdf,今治地区,令和3年度
81,a5K7F000001YlOQUA0,カシヤ熊池,今治市野間,34.06369444,132.9549167,https://www.city.imabari.ehime.jp/noudo/hazardmap/imabari/imabari_R3_54.pdf,今治地区,令和3年度
82,a5K7F000001YlORUA0,蓮上池,今治市野間,34.06333333,132.9452778,https://www.city.imabari.ehime.jp/noudo/hazardmap/imabari/imabari_R3_55.pdf,今治地区,令和3年度
83,a5K7F000001YlOSUA0,江良池,今治市野間,34.05919444,132.94175,https://www.city.imabari.ehime.jp/noudo/hazardmap/imabari/imabari_R3_56.pdf,今治地区,令和3年度
84,a5K7F000001YlOVUA0,入鹿谷池,今治市野間,34.05577778,132.9436667,https://www.city.imabari.ehime.jp/noudo/hazardmap/imabari/imabari_R3_57.pdf,今治地区,令和3年度
85,a5K7F000001YlOWUA0,高山池,今治市野間,34.05677778,132.9381389,https://www.city.imabari.ehime.jp/noudo/hazardmap/imabari/imabari_R3_58.pdf,今治地区,令和3年度
86,a5K7F000001YlOXUA0,本谷池,今治市宅間,34.07927778,132.9457222,https://www.city.imabari.ehime.jp/noudo/hazardmap/imabari/imabari_R3_59.pdf,今治地区,令和3年度
87,a5K7F000001YlOYUA0,荒木池,今治市宅間,34.07752778,132.9474722,https://www.city.imabari.ehime.jp/noudo/hazardmap/imabari/imabari_R3_60.pdf,今治地区,令和3年度
88,a5K7F000001YlOaUAK,蓮池,今治市宅間,34.0675,132.9469444,https://www.city.imabari.ehime.jp/noudo/hazardmap/imabari/imabari_R3_61.pdf,今治地区,令和3年度
89,a5K7F000001YlOdUAK,伊ノ谷池,今治市宅間,34.07355556,132.9421667,https://www.city.imabari.ehime.jp/noudo/hazardmap/imabari/imabari_R3_62.pdf,今治地区,令和3年度
90,a5K7F000001YlOeUAK,楠谷池,今治市延喜,34.07527778,132.9622222,https://www.city.imabari.ehime.jp/noudo/hazardmap/imabari/imabari_R3_63.pdf,今治地区,令和3年度
91,a5K7F000001YlOfUAK,底江池,今治市延喜,34.07416667,132.9544167,https://www.city.imabari.ehime.jp/noudo/hazardmap/imabari/imabari_R3_64.pdf,今治地区,令和3年度
92,a5K7F000001YlOgUAK,片垣池,今治市延喜,34.07897222,132.9595556,https://www.city.imabari.ehime.jp/noudo/hazardmap/imabari/imabari_R3_65.pdf,今治地区,令和3年度
93,a5K7F000001YlOhUAK,片垣新池,今治市延喜,34.07902778,132.9616111,https://www.city.imabari.ehime.jp/noudo/hazardmap/imabari/imabari_R3_66.pdf,今治地区,令和3年度
94,a5K7F000001YlOiUAK,底江下池,今治市延喜,34.0725,132.9547222,https://www.city.imabari.ehime.jp/noudo/hazardmap/imabari/imabari_R3_67.pdf,今治地区,令和3年度
95,a5K7F000001YlOjUAK,藤谷池,今治市延喜,34.07875,132.9580556,https://www.city.imabari.ehime.jp/noudo/hazardmap/imabari/imabari_R3_68.pdf,今治地区,令和3年度
96,a5K7F000001YlOkUAK,畑井田池2（上畑井田池）,今治市阿方,34.0605,132.96175,https://www.city.imabari.ehime.jp/noudo/hazardmap/imabari/imabari_R3_69.pdf,今治地区,令和3年度
97,a5K7F000001YlOlUAK,畑井田池（下畑井田池）,今治市延喜,34.06261111,132.9592778,https://www.city.imabari.ehime.jp/noudo/hazardmap/imabari/imabari_R3_70.pdf,今治地区,令和3年度
98,a5K7F000001YlOmUAK,坪ノ内池,今治市阿方,34.06788889,132.9643056,https://www.city.imabari.ehime.jp/noudo/hazardmap/imabari/imabari_R3_71.pdf,今治地区,令和3年度
99,a5K7F000001YlOoUAK,平尻口池,今治市阿方,34.07427778,132.9643889,https://www.city.imabari.ehime.jp/noudo/hazardmap/imabari/imabari_R3_72.pdf,今治地区,令和3年度
100,a5K7F000001YlOpUAK,久保池,今治市阿方,34.06572222,132.9637222,https://www.city.imabari.ehime.jp/noudo/hazardmap/imabari/imabari_R3_73.pdf,今治地区,令和3年度
101,a5K7F000001YlOqUAK,八代勝池,今治市阿方,34.06491667,132.9625,https://www.city.imabari.ehime.jp/noudo/hazardmap/imabari/imabari_R3_74.pdf,今治地区,令和3年度
102,a5K7F000001YlOrUAK,牛ノ江池,今治市しまなみヒルズ,34.06922222,132.9708056,https://www.city.imabari.ehime.jp/noudo/hazardmap/imabari/imabari_R3_75.pdf,今治地区,令和3年度
103,a5K7F000001YlOsUAK,中尾池,今治市阿方,34.07122222,132.9660556,https://www.city.imabari.ehime.jp/noudo/hazardmap/imabari/imabari_R3_76.pdf,今治地区,令和3年度
104,a5K7F000001YlOtUAK,下平池,今治市山路,34.05416667,132.9755833,https://www.city.imabari.ehime.jp/noudo/hazardmap/imabari/imabari_R3_77.pdf,今治地区,令和3年度
105,a5K7F000001YlOuUAK,木ノ谷池,今治市山路,34.05455556,132.9723889,https://www.city.imabari.ehime.jp/noudo/hazardmap/imabari/imabari_R3_78.pdf,今治地区,令和3年度
106,a5K7F000001YlOvUAK,イタチ門下池,今治市山路,34.06416667,132.9765278,https://www.city.imabari.ehime.jp/noudo/hazardmap/imabari/imabari_R3_79.pdf,今治地区,令和3年度
107,a5K7F000001YlOyUAK,日読池,今治市杣田,34.09263889,132.9594722,https://www.city.imabari.ehime.jp/noudo/hazardmap/imabari/imabari_R3_80.pdf,今治地区,令和3年度
108,a5K7F000001YlP0UAK,高田池,今治市杣田,34.09130556,132.9523333,https://www.city.imabari.ehime.jp/noudo/hazardmap/imabari/imabari_R3_81.pdf,今治地区,令和3年度
109,a5K7F000001YlP1UAK,引野池,今治市高部,34.0935,132.9637778,https://www.city.imabari.ehime.jp/noudo/hazardmap/imabari/imabari_R3_82.pdf,今治地区,令和3年度
110,a5K7F000001YlP2UAK,深田池,今治市高部,34.09866667,132.9759167,https://www.city.imabari.ehime.jp/noudo/hazardmap/imabari/imabari_R3_83.pdf,今治地区,令和3年度
111,a5K7F000001YlP5UAK,新田池,今治市高部,34.09469444,132.95975,https://www.city.imabari.ehime.jp/noudo/hazardmap/imabari/imabari_R3_84.pdf,今治地区,令和3年度
112,a5K7F000001YlP6UAK,相中池,今治市高部,34.09177778,132.9778333,https://www.city.imabari.ehime.jp/noudo/hazardmap/imabari/imabari_R3_85.pdf,今治地区,令和3年度
113,a5K7F000001YlP7UAK,大谷池（高部）,今治市高部,34.09358333,132.9723889,https://www.city.imabari.ehime.jp/noudo/hazardmap/imabari/imabari_R3_86.pdf,今治地区,令和3年度
114,a5K7F000001YlP8UAK,古池,今治市高部,34.09152778,132.9751667,https://www.city.imabari.ehime.jp/noudo/hazardmap/imabari/imabari_R3_87.pdf,今治地区,令和3年度
115,a5K7F000001YlP9UAK,奥池,今治市高部,34.09366667,132.968,https://www.city.imabari.ehime.jp/noudo/hazardmap/imabari/imabari_R3_88.pdf,今治地区,令和3年度
116,a5K7F000001YlPAUA0,小池,今治市高部,34.09494444,132.9658611,https://www.city.imabari.ehime.jp/noudo/hazardmap/imabari/imabari_R3_89.pdf,今治地区,令和3年度
117,a5K7F000001YlPDUA0,宮谷池,今治市高部,34.09619444,132.9759167,https://www.city.imabari.ehime.jp/noudo/hazardmap/imabari/imabari_R3_90.pdf,今治地区,令和3年度
125,a5K7F000001YlPdUAK,大池（高地）,今治市高地町一丁目,34.07244444,132.9770833,https://www.city.imabari.ehime.jp/noudo/hazardmap/imabari/imabari_ooike.pdf,今治地区,令和3年度
126,a5K7F000001YlPXUA0,幸戸池,今治市石井町五丁目,34.08038889,132.9829444,https://www.city.imabari.ehime.jp/noudo/hazardmap/imabari/imabari_koudoike.pdf,今治地区,
127,a5K7F000001YlPWUA0,文箱池,今治市石井町五丁目,34.08430556,132.9826944,https://www.city.imabari.ehime.jp/noudo/hazardmap/imabari/imabari_fubakoike.pdf,今治地区,
128,a5K7F000001YlPMUA0,青木池,今治市近見町四丁目,34.08991667,132.9803056,https://www.city.imabari.ehime.jp/noudo/hazardmap/imabari/imabari_aokiike.pdf,今治地区,
129,a5K7F000001YlONUA0,大谷池（神宮）,今治市神宮,34.04766667,132.94975,https://www.city.imabari.ehime.jp/noudo/hazardmap/imabari/imabari_otaniike.pdf,今治地区,
130,a5K7F000001YlOTUA0,城ヶ谷池,今治市野間,34.0545,132.9371944,https://www.city.imabari.ehime.jp/noudo/hazardmap/imabari/imabari_jyogataniike.pdf,今治地区,
131,a5K7F000001YlOZUA0,拝田池,今治市宅間,34.07083333,132.95125,https://www.city.imabari.ehime.jp/noudo/hazardmap/imabari/imabari_haidaike_furuike.pdf,今治地区,
131,a5K7F000001YlObUAK,古池,今治市宅間,34.08425,132.9468611,https://www.city.imabari.ehime.jp/noudo/hazardmap/imabari/imabari_haidaike_furuike.pdf,今治地区,
132,a5K7F000001YlOcUAK,鳥越池（宅間）,今治市宅間,34.07319444,132.9519722,https://www.city.imabari.ehime.jp/noudo/hazardmap/imabari/imabari_torigoeike.pdf,今治地区,
133,a5K7F000001YlOxUAK,上池,今治市杣田,34.08588889,132.9584167,https://www.city.imabari.ehime.jp/noudo/hazardmap/namikata/namikata_kamiike.pdf,今治地区,
134,a5K7F000001YlOzUAK,向池,今治市杣田,34.09202778,132.9581667,https://www.city.imabari.ehime.jp/noudo/hazardmap/namikata/namikata_mukaiike.pdf,今治地区,
135,a5K7F000001YlOnUAK,阿方大池,今治市阿方,34.07277778,132.965,https://www.city.imabari.ehime.jp/noudo/hazardmap/imabari/imabari_agataooike.pdf,今治地区,
136,a5K7F000001YlOwUAK,高屋池,今治市山路,34.06683333,132.97525,https://www.city.imabari.ehime.jp/noudo/hazardmap/imabari/imabari_kouyaike.pdf,今治地区,
137,a5K7F000001YlOUUA0,柳添池,今治市野間,34.05197222,132.9459722,https://www.city.imabari.ehime.jp/noudo/hazardmap/imabari/imabari_yanagisoike.pdf,今治地区,
138,a5K7F000001YlOOUA0,新池,今治市神宮,34.04397222,132.9453889,https://www.city.imabari.ehime.jp/noudo/hazardmap/imabari/imabari_sinike_kannomiya.pdf,今治地区,
139,a5K7F000001YlO1UAK,鹿ノ子池,今治市古谷,34.01938889,132.99625,https://www.city.imabari.ehime.jp/noudo/hazardmap/imabari/imabari_kanokoike.pdf,今治地区,
140,a5K7F000001YlODUA0,犬塚池,今治市玉川町八幡,34.02305556,132.9785,https://www.city.imabari.ehime.jp/noudo/hazardmap/imabari/imabari_inudukaike.pdf,今治地区,
141,a5K7F000001YlNlUAK,柏谷池,今治市国分三丁目,34.02880556,133.0237778,https://www.city.imabari.ehime.jp/noudo/hazardmap/imabari/imabari_kasiwadaniike.pdf,今治地区,
142,a5K7F000001YlNNUA0,医王池,今治市孫兵衛作,33.98297222,133.0541944,https://www.city.imabari.ehime.jp/noudo/hazardmap/imabari/imabari_iouike.pdf,今治地区,
143,a5K7F000001YlNaUAK,高麗池,今治市旦,34.01341667,133.0284167,https://www.city.imabari.ehime.jp/noudo/hazardmap/imabari/imabari_kouraiike.pdf,今治地区,
144,a5K7F000001YlNOUA0,大谷池（孫兵衛作）,今治市孫兵衛作,33.98747222,133.0568056,https://www.city.imabari.ehime.jp/noudo/hazardmap/imabari/imabari_ootaniike.pdf,今治地区,
145,a5K7F000001YlNqUAK,鳥越池,今治市古国分二丁目,34.02944444,133.0351111,https://www.city.imabari.ehime.jp/noudo/hazardmap/imabari/imabari_torigoeike_furukokubu.pdf,今治地区,
146,a5K7F000001YlNjUAK,鳥越下池,今治市唐子台東三丁目,34.02644444,133.0295278,https://www.city.imabari.ehime.jp/noudo/hazardmap/imabari/imabari_torigoesimoike.pdf,今治地区,
147,a5K7F000001YlNkUAK,鳥越上池,今治市唐子台東三丁目,34.02736111,133.0299167,https://www.city.imabari.ehime.jp/noudo/hazardmap/imabari/imabari_torigoekamiike.pdf,今治地区,
148,a5K7F000001YlPBUA0,扇池,今治市高部,34.09308333,132.9735278,https://www.city.imabari.ehime.jp/noudo/hazardmap/imabari/imabari_ougiike.pdf,今治地区,
149,a5K7F000001YlP3UAK,打越池,今治市高部,34.09541667,132.9691944,https://www.city.imabari.ehime.jp/noudo/hazardmap/imabari/imabari_uchikoshiike.pdf,今治地区,
150,a5K7F000001YlP4UAK,尾池,今治市高部,34.09475,132.9645833,https://www.city.imabari.ehime.jp/noudo/hazardmap/imabari/imabari_oike.pdf,今治地区,
151,a5K7F000001YlPCUA0,新池,今治市高部,34.09052778,132.9690833,https://www.city.imabari.ehime.jp/noudo/hazardmap/imabari/imabari_sinike_takabe.pdf,今治地区,
152,a5K7F000001YlQ5UAK,棚井上池,今治市古谷,33.99827778,132.994,https://www.city.imabari.ehime.jp/noudo/hazardmap/asakura/asakura_tanaikamiike.pdf,今治地区,
153,a5K7F000001YlQ3UAK,多伎池,今治市古谷,34.0005,132.9944444,https://www.city.imabari.ehime.jp/noudo/hazardmap/asakura/asakura_takiike.pdf,今治地区,
154,a5K7F000001YlO7UAK,上池(後池),今治市古谷,34.01497222,132.9983611,https://www.city.imabari.ehime.jp/noudo/hazardmap/asakura/asakura_R3_01.pdf,朝倉地区,令和3年
155,a5K7F000001YlPhUAK,椎の木池,今治市朝倉上,33.97075,133.0217778,https://www.city.imabari.ehime.jp/noudo/hazardmap/asakura/asakura_R3_02.pdf,朝倉地区,令和3年
156,a5K7F000001YlPjUAK,鈴谷池,今治市朝倉上,33.97033333,133.0299722,https://www.city.imabari.ehime.jp/noudo/hazardmap/asakura/asakura_R3_03.pdf,朝倉地区,令和3年
157,a5K7F000001YlPkUAK,竹ヶ谷池,今治市朝倉上,33.97066667,133.0350556,https://www.city.imabari.ehime.jp/noudo/hazardmap/asakura/asakura_R3_04.pdf,朝倉地区,令和3年
158,a5K7F000001YlPlUAK,中町池,今治市朝倉上,33.97980556,133.0096111,https://www.city.imabari.ehime.jp/noudo/hazardmap/asakura/asakura_R3_05.pdf,朝倉地区,令和3年
159,a5K7F000001YlPmUAK,大谷古池,今治市朝倉上,33.98505556,133.0113056,https://www.city.imabari.ehime.jp/noudo/hazardmap/asakura/asakura_R3_06.pdf,朝倉地区,令和3年
160,a5K7F000001YlPoUAK,中力池,今治市朝倉上,33.98711111,133.0141111,https://www.city.imabari.ehime.jp/noudo/hazardmap/asakura/asakura_R3_07.pdf,朝倉地区,令和3年
161,a5K7F000001YlPpUAK,足中出池,今治市朝倉上,33.99083333,133.0049722,https://www.city.imabari.ehime.jp/noudo/hazardmap/asakura/asakura_R3_08.pdf,朝倉地区,令和3年
162,a5K7F000001YlPqUAK,奥孕池1,今治市朝倉下,33.99569444,133.0114167,https://www.city.imabari.ehime.jp/noudo/hazardmap/asakura/asakura_R3_09.pdf,朝倉地区,令和3年
163,a5K7F000001YlPrUAK,奥孕池2,今治市古谷,33.99505556,133.011,https://www.city.imabari.ehime.jp/noudo/hazardmap/asakura/asakura_R3_10.pdf,朝倉地区,令和3年
164,a5K7F000001YlPsUAK,孕池,今治市朝倉下,33.99727778,133.0121111,https://www.city.imabari.ehime.jp/noudo/hazardmap/asakura/asakura_R3_11.pdf,朝倉地区,令和3年
165,a5K7F000001YlPtUAK,岡池,今治市古谷,33.99875,133.0098056,https://www.city.imabari.ehime.jp/noudo/hazardmap/asakura/asakura_R3_12.pdf,朝倉地区,令和3年
166,a5K7F000001YlPuUAK,原中池,今治市朝倉下,34.00075,133.0076667,https://www.city.imabari.ehime.jp/noudo/hazardmap/asakura/asakura_R3_13.pdf,朝倉地区,令和3年
167,a5K7F000001YlPvUAK,原池,今治市朝倉下,34.00127778,133.008,https://www.city.imabari.ehime.jp/noudo/hazardmap/asakura/asakura_R3_14.pdf,朝倉地区,令和3年
168,a5K7F000001YlPwUAK,笹池,今治市古谷,34.00266667,133.0058611,https://www.city.imabari.ehime.jp/noudo/hazardmap/asakura/asakura_R3_15.pdf,朝倉地区,令和3年
169,a5K7F000001YlPxUAK,荒神池,今治市山口,34.00491667,133.0057778,https://www.city.imabari.ehime.jp/noudo/hazardmap/asakura/asakura_R3_16.pdf,朝倉地区,令和3年
170,a5K7F000001YlPyUAK,池の谷池,今治市古谷,34.00372222,133.0023056,https://www.city.imabari.ehime.jp/noudo/hazardmap/asakura/asakura_R3_17.pdf,朝倉地区,令和3年
171,a5K7F000001YlPzUAK,池の谷上池,今治市古谷,34.00311111,133.002,https://www.city.imabari.ehime.jp/noudo/hazardmap/asakura/asakura_R3_18.pdf,朝倉地区,令和3年
172,a5K7F000001YlQ0UAK,祝谷池,今治市古谷,34.00425,133.0015,https://www.city.imabari.ehime.jp/noudo/hazardmap/asakura/asakura_R3_19.pdf,朝倉地区,令和3年
173,a5K7F000001YlQ1UAK,蜂の子池,今治市古谷,34.01058333,133.0012222,https://www.city.imabari.ehime.jp/noudo/hazardmap/asakura/asakura_R3_20.pdf,朝倉地区,令和3年
174,a5K7F000001YlQ2UAK,能楽池,今治市古谷,34.00966667,132.9991111,https://www.city.imabari.ehime.jp/noudo/hazardmap/asakura/asakura_R3_21.pdf,朝倉地区,令和3年
175,a5K7F000001YlQ4UAK,棚井池,今治市古谷,33.99905556,132.9940556,https://www.city.imabari.ehime.jp/noudo/hazardmap/asakura/asakura_R3_22.pdf,朝倉地区,令和3年
176,a5K7F000001YlQ7UAK,原池（原南池）,今治市朝倉南,33.99255556,133.0329444,https://www.city.imabari.ehime.jp/noudo/hazardmap/asakura/asakura_R3_23.pdf,朝倉地区,令和3年
177,a5K7F000001YlQ8UAK,原上池,今治市朝倉南,33.99166667,133.0336111,https://www.city.imabari.ehime.jp/noudo/hazardmap/asakura/asakura_R3_24.pdf,朝倉地区,令和3年
178,a5K7F000001YlQ9UAK,勝負谷池（勝負谷下池）,今治市朝倉上,33.99188889,132.9996389,https://www.city.imabari.ehime.jp/noudo/hazardmap/asakura/asakura_R3_25.pdf,朝倉地区,令和3年
179,a5K7F000001YlQBUA0,浦谷池,今治市古谷,34.00719444,132.9950556,https://www.city.imabari.ehime.jp/noudo/hazardmap/asakura/asakura_R3_26.pdf,朝倉地区,令和3年
180,a5K7F000001YlUMUA0,重谷池,今治市朝倉上,33.98805556,133.0079167,https://www.city.imabari.ehime.jp/noudo/hazardmap/asakura/asakura_R3_27.pdf,朝倉地区,令和3年
181,a5K7F000001YlUNUA0,桜木池,今治市朝倉上,33.99027778,133.0074167,https://www.city.imabari.ehime.jp/noudo/hazardmap/asakura/asakura_R3_28.pdf,朝倉地区,令和3年
182,a5K7F000001YlUOUA0,堂の奥池,今治市朝倉上,33.98883333,133.00275,https://www.city.imabari.ehime.jp/noudo/hazardmap/asakura/asakura_R3_29.pdf,朝倉地区,令和3年
183,a5K7F000001YlUPUA0,正善寺池,今治市朝倉南,33.99263889,133.0093333,https://www.city.imabari.ehime.jp/noudo/hazardmap/asakura/asakura_R3_30.pdf,朝倉地区,令和3年
184,a5K7F000001YlUQUA0,辻堂池,今治市古谷,33.996,133.0107778,https://www.city.imabari.ehime.jp/noudo/hazardmap/asakura/asakura_R3_31.pdf,朝倉地区,令和3年
185,a5K7F000001YlURUA0,山崎池,今治市古谷,34.0015,133.0067778,https://www.city.imabari.ehime.jp/noudo/hazardmap/asakura/asakura_R3_32.pdf,朝倉地区,令和3年
186,a5K7F000001YlUSUA0,笹下池,今治市朝倉下,34.00327778,133.0063333,https://www.city.imabari.ehime.jp/noudo/hazardmap/asakura/asakura_R3_33.pdf,朝倉地区,令和3年
187,a5K7F000001YlUTUA0,山邸下池,今治市古谷,34.00338889,133.0050833,https://www.city.imabari.ehime.jp/noudo/hazardmap/asakura/asakura_R3_34.pdf,朝倉地区,令和3年
188,a5K7F000001YlUUUA0,山邸上池,今治市古谷,34.00263889,133.0043056,https://www.city.imabari.ehime.jp/noudo/hazardmap/asakura/asakura_R3_35.pdf,朝倉地区,令和3年
189,a5K7F000001YlUVUA0,白崎第１池,今治市朝倉北,34.00197222,133.0276389,https://www.city.imabari.ehime.jp/noudo/hazardmap/asakura/asakura_R3_36.pdf,朝倉地区,令和3年
190,a5K7F000001YlUWUA0,白崎第２池,今治市朝倉北,34.00127778,133.0281389,https://www.city.imabari.ehime.jp/noudo/hazardmap/asakura/asakura_R3_37.pdf,朝倉地区,令和3年
191,a5K7F000001YlUXUA0,今若池,今治市朝倉南,33.99708333,133.0298889,https://www.city.imabari.ehime.jp/noudo/hazardmap/asakura/asakura_R3_38.pdf,朝倉地区,令和3年
192,a5K7F000001YlQAUA0,ホオノキ池,今治市朝倉上,33.97711111,133.0179444,https://www.city.imabari.ehime.jp/noudo/hazardmap/asakura/asakura_R3_39.pdf,朝倉地区,令和3年
197,a5K7F000001YlQ6UAK,門口池,今治市古谷,34.00666667,132.9852222,https://www.city.imabari.ehime.jp/noudo/hazardmap/asakura/asakura_monguchiike.pdf,朝倉地区,
198,a5K7F000001YlVRUA0,朝倉ダム,今治市朝倉上,33.95697777,133.0061972,https://www.city.imabari.ehime.jp/noudo/hazardmap/asakura/asakura_asakuradam.pdf,朝倉地区,
199,a5K7F000001YlPiUAK,榎谷池,今治市朝倉上,33.96525,133.0306944,https://www.city.imabari.ehime.jp/noudo/hazardmap/asakura/asakura_enokidaniike.pdf,朝倉地区,
200,a5K7F000001YlPgUAK,小口池,今治市朝倉上,33.97072222,133.0168333,https://www.city.imabari.ehime.jp/noudo/hazardmap/asakura/asakura_koguchiike.pdf,朝倉地区,
201,a5K7F000001YlPfUAK,大拇池,今治市朝倉上,33.97091667,133.0019167,https://www.city.imabari.ehime.jp/noudo/hazardmap/asakura/asakura_ootugaike.pdf,朝倉地区,
202,a5K7F000001YlPnUAK,大谷池,今治市朝倉上,33.98633333,133.0100556,https://www.city.imabari.ehime.jp/noudo/hazardmap/asakura/asakura_ootaniike.pdf,朝倉地区,
205,a5K7F000001YlQCUA0,小池,今治市玉川町別所,34.02363889,132.9761389,https://www.city.imabari.ehime.jp/noudo/hazardmap/tamagawa/tamagawa_R3_01.pdf,玉川地区,令和3年
206,a5K7F000001YlQGUA0,柳谷下池,今治市玉川町小鴨部,34.02108333,132.9723333,https://www.city.imabari.ehime.jp/noudo/hazardmap/tamagawa/tamagawa_R3_02.pdf,玉川地区,令和3年
207,a5K7F000001YlQHUA0,柳谷上池,今治市玉川町別所,34.01980556,132.9725556,https://www.city.imabari.ehime.jp/noudo/hazardmap/tamagawa/tamagawa_R3_03.pdf,玉川地区,令和3年
208,a5K7F000001YlQIUA0,菅ノ谷池（菅ノ口）,今治市玉川町小鴨部,34.02102778,132.9650278,https://www.city.imabari.ehime.jp/noudo/hazardmap/tamagawa/tamagawa_R3_04.pdf,玉川地区,令和3年
209,a5K7F000001YlQKUA0,大谷池,今治市玉川町鬼原,33.99491667,132.9435,https://www.city.imabari.ehime.jp/noudo/hazardmap/tamagawa/tamagawa_R3_05.pdf,玉川地区,令和3年
210,a5K7F000001YlQNUA0,ニゴリガ谷池,今治市玉川町法界寺,34.02955556,132.9457778,https://www.city.imabari.ehime.jp/noudo/hazardmap/tamagawa/tamagawa_R3_06.pdf,玉川地区,令和3年
211,a5K7F000001YlQOUA0,新池,今治市玉川町摺木,34.03288889,132.9385556,https://www.city.imabari.ehime.jp/noudo/hazardmap/tamagawa/tamagawa_R3_07.pdf,玉川地区,令和3年
212,a5K7F000001YlQPUA0,小窪池,今治市玉川町與和木,34.03458333,132.92775,https://www.city.imabari.ehime.jp/noudo/hazardmap/tamagawa/tamagawa_R3_08.pdf,玉川地区,令和3年
213,a5K7F000001YlQSUA0,柿谷池,今治市玉川町桂,34.01758333,132.9226111,https://www.city.imabari.ehime.jp/noudo/hazardmap/tamagawa/tamagawa_R3_09.pdf,玉川地区,令和3年
214,a5K7F000001YlQTUA0,柳谷池（桂ヤナギ谷）,今治市玉川町桂,34.013,132.9226111,https://www.city.imabari.ehime.jp/noudo/hazardmap/tamagawa/tamagawa_R3_10.pdf,玉川地区,令和3年
215,a5K7F000001YlQVUA0,イノタニ池,今治市玉川町桂,34.00961111,132.9281389,https://www.city.imabari.ehime.jp/noudo/hazardmap/tamagawa/tamagawa_R3_11.pdf,玉川地区,令和3年
217,a5K7F000001YlQMUA0,新池（法界寺）,今治市玉川町法界寺,34.03002778,132.9470556,https://www.city.imabari.ehime.jp/noudo/hazardmap/tamagawa/tamagawa_sinike.pdf,玉川地区,
218,a5K7F000001YlQDUA0,ゴマジリ池,今治市玉川町別所,34.02166667,132.9741667,https://www.city.imabari.ehime.jp/noudo/hazardmap/tamagawa/tamagawa_gomajiriike_ogidaniike.pdf,玉川地区,
218,a5K7F000001YlQFUA0,扇谷池,今治市玉川町別所,34.01955556,132.9744444,https://www.city.imabari.ehime.jp/noudo/hazardmap/tamagawa/tamagawa_gomajiriike_ogidaniike.pdf,玉川地区,
219,a5K7F000001YlQEUA0,柳谷池,今治市玉川町別所,34.01969444,132.9756944,https://www.city.imabari.ehime.jp/noudo/hazardmap/tamagawa/tamagawa_yanagidaniike.pdf,玉川地区,
220,a5K7F000001YlQJUA0,宝池,今治市玉川町畑寺,34.00163889,132.9545278,https://www.city.imabari.ehime.jp/noudo/hazardmap/tamagawa/tamagawa_takaraike.pdf,玉川地区,
221,a5K7F000001YlQLUA0,新池（鬼原）,今治市玉川町鈍川,33.99369444,132.9408333,https://www.city.imabari.ehime.jp/noudo/hazardmap/tamagawa/tamagawa_sinike_onihara.pdf,玉川地区,
222,a5K7F000001YlQUUA0,幸門池,今治市玉川町御厩,34.00527778,132.9255278,https://www.city.imabari.ehime.jp/noudo/hazardmap/tamagawa/tamagawa_saikadoike.pdf,玉川地区,
224,a5K7F000001YlQRUA0,新池（鍋地）,今治市玉川町鍋地,34.02402778,132.9121389,https://www.city.imabari.ehime.jp/noudo/hazardmap/tamagawa/tamagawa_sinike_nabeji.pdf,玉川地区,
225,a5K7F000001YlQQUA0,元切池,今治市玉川町鍋地,34.02713889,132.9192778,https://www.city.imabari.ehime.jp/noudo/hazardmap/tamagawa/tamagawa_motokiriike.pdf,玉川地区,
227,a5K7F000001YlQuUAK,家ノ谷池,今治市波方町樋口,34.08919444,132.9425833,https://www.city.imabari.ehime.jp/noudo/hazardmap/namikata/namikata_R4_01.pdf?1,波方地区,令和4年
228,a5K7F000001YlQvUAK,家ノ谷奥池,今治市波方町樋口,34.08841667,132.942,https://www.city.imabari.ehime.jp/noudo/hazardmap/namikata/namikata_R4_02.pdf?1,波方地区,令和4年
229,a5K7F000001YlQzUAK,丸田池,今治市波方町樋口,34.10172222,132.9328333,https://www.city.imabari.ehime.jp/noudo/hazardmap/namikata/namikata_R4_03.pdf?1,波方地区,令和4年
230,a5K7F000001YlUcUAK,野間手池,今治市波方町西浦,34.13325,132.9394722,https://www.city.imabari.ehime.jp/noudo/hazardmap/namikata/namikata_R4_04.pdf?1,波方地区,令和4年
231,a5K7F000001YlUeUAK,海山下池(たんだ池),今治市波方町波方,34.11158333,132.9541944,https://www.city.imabari.ehime.jp/noudo/hazardmap/namikata/namikata_R4_05.pdf?1,波方地区,令和4年
232,a5K7F000001YlUfUAK,石持奥池,今治市波方町波方,34.11719444,132.9601944,https://www.city.imabari.ehime.jp/noudo/hazardmap/namikata/namikata_R4_06.pdf?1,波方地区,令和4年
233,a5K7F000001YlUgUAK,源氏池,今治市波方町郷,34.11022222,132.9592778,https://www.city.imabari.ehime.jp/noudo/hazardmap/namikata/namikata_R4_07.pdf?1,波方地区,令和4年
234,a5K7F000001YlUhUAK,渡邊池,今治市波方町郷,34.105,132.9586667,https://www.city.imabari.ehime.jp/noudo/hazardmap/namikata/namikata_R4_08.pdf?1,波方地区,令和4年
235,a5K7F000001YlUiUAK,佐郡前池,今治市波方町樋口,34.10333333,132.9575556,https://www.city.imabari.ehime.jp/noudo/hazardmap/namikata/namikata_R4_09.pdf?1,波方地区,令和4年
236,a5K7F000001YlUjUAK,奥山池,今治市波方町樋口,34.10188889,132.9513611,https://www.city.imabari.ehime.jp/noudo/hazardmap/namikata/namikata_R4_10.pdf?1,波方地区,令和4年
237,a5K7F000001YlUkUAK,小谷池,今治市波方町樋口,34.09705556,132.9344444,https://www.city.imabari.ehime.jp/noudo/hazardmap/namikata/namikata_R4_11.pdf?1,波方地区,令和4年
238,a5K7F000001YlUlUAK,高山池,今治市波方町樋口,34.10230556,132.9385278,https://www.city.imabari.ehime.jp/noudo/hazardmap/namikata/namikata_R4_12.pdf?1,波方地区,令和4年
239,a5K7F000001YlUmUAK,上谷池,今治市波方町樋口,34.10077778,132.9393056,https://www.city.imabari.ehime.jp/noudo/hazardmap/namikata/namikata_R4_13.pdf?1,波方地区,令和4年
240,a5K7F000001YlUnUAK,中谷池,今治市波方町樋口,34.09863889,132.9399444,https://www.city.imabari.ehime.jp/noudo/hazardmap/namikata/namikata_R4_14.pdf?1,波方地区,令和4年
241,a5K7F000001YlUoUAK,下谷池,今治市波方町樋口,34.09766667,132.9406111,https://www.city.imabari.ehime.jp/noudo/hazardmap/namikata/namikata_R4_15.pdf?1,波方地区,令和4年
242,a5K7F000001YlUpUAK,鶴木谷池,今治市波方町樋口,34.09763889,132.9426667,https://www.city.imabari.ehime.jp/noudo/hazardmap/namikata/namikata_R4_16.pdf?1,波方地区,令和4年
243,a5K7F000001YlUqUAK,床畑奥池,今治市波方町樋口,34.09941667,132.9446944,https://www.city.imabari.ehime.jp/noudo/hazardmap/namikata/namikata_R4_17.pdf?1,波方地区,令和4年
244,a5K7F000001YlUrUAK,塚ノ谷池,今治市波方町養老,34.10483333,132.9435,https://www.city.imabari.ehime.jp/noudo/hazardmap/namikata/namikata_R4_18.pdf?1,波方地区,令和4年
245,a5K7F000001YlUsUAK,蛭谷池,今治市波方町養老,34.10608333,132.9419167,https://www.city.imabari.ehime.jp/noudo/hazardmap/namikata/namikata_R4_19.pdf?1,波方地区,令和4年
246,a5K7F000001YlUtUAK,村上九一池,今治市波方町養老,34.11316667,132.9421389,https://www.city.imabari.ehime.jp/noudo/hazardmap/namikata/namikata_R4_20.pdf?1,波方地区,令和4年
247,a5K7F000001YlUuUAK,弁則産池,今治市波方町養老,34.10627778,132.9480556,https://www.city.imabari.ehime.jp/noudo/hazardmap/namikata/namikata_R4_21.pdf?1,波方地区,令和4年
248,a5K7F000001YlUvUAK,東照寺池,今治市波方町養老,34.10608333,132.9491111,https://www.city.imabari.ehime.jp/noudo/hazardmap/namikata/namikata_R4_22.pdf?1,波方地区,令和4年
249,a5K7F000001YlUwUAK,金比羅池,今治市波方町小部,34.10544444,132.9316667,https://www.city.imabari.ehime.jp/noudo/hazardmap/namikata/namikata_R4_23.pdf?1,波方地区,令和4年
250,a5K7F000001YlUxUAK,岡孫池,今治市波方町岡,34.11066667,132.9286389,https://www.city.imabari.ehime.jp/noudo/hazardmap/namikata/namikata_R4_24.pdf?1,波方地区,令和4年
252,a5K7F000001YlQWUA0,馬刀潟新池,今治市波方町馬刀潟,34.11461111,132.9270556,https://www.city.imabari.ehime.jp/noudo/hazardmap/namikata/namikata_R3_01.pdf,波方地区,令和3年
253,a5K7F000001YlQXUA0,馬坂池,今治市波方町森上,34.11733333,132.9344444,https://www.city.imabari.ehime.jp/noudo/hazardmap/namikata/namikata_R3_02.pdf,波方地区,令和3年
254,a5K7F000001YlQYUA0,本谷奥池,今治市波方町西浦,34.11902778,132.9411667,https://www.city.imabari.ehime.jp/noudo/hazardmap/namikata/namikata_R3_03.pdf,波方地区,令和3年
255,a5K7F000001YlQZUA0,高下池,今治市波方町西浦,34.12347222,132.9378056,https://www.city.imabari.ehime.jp/noudo/hazardmap/namikata/namikata_R3_04.pdf,波方地区,令和3年
256,a5K7F000001YlQaUAK,高下奥池,今治市波方町西浦,34.12327778,132.9398611,https://www.city.imabari.ehime.jp/noudo/hazardmap/namikata/namikata_R3_05.pdf,波方地区,令和3年
257,a5K7F000001YlQbUAK,谷上池,今治市波方町波方,34.11922222,132.9465556,https://www.city.imabari.ehime.jp/noudo/hazardmap/namikata/namikata_R3_06.pdf,波方地区,令和3年
258,a5K7F000001YlQcUAK,谷下池,今治市波方町波方,34.11905556,132.9481944,https://www.city.imabari.ehime.jp/noudo/hazardmap/namikata/namikata_R3_07.pdf,波方地区,令和3年
259,a5K7F000001YlQdUAK,黒谷池,今治市波方町波方,34.11783333,132.9488611,https://www.city.imabari.ehime.jp/noudo/hazardmap/namikata/namikata_R3_08.pdf,波方地区,令和3年
260,a5K7F000001YlQeUAK,三ツ池,今治市波方町波方,34.116,132.9488056,https://www.city.imabari.ehime.jp/noudo/hazardmap/namikata/namikata_R3_09.pdf,波方地区,令和3年
261,a5K7F000001YlQfUAK,小池下池,今治市波方町波方,34.11516667,132.9498056,https://www.city.imabari.ehime.jp/noudo/hazardmap/namikata/namikata_R3_10.pdf,波方地区,令和3年
262,a5K7F000001YlQhUAK,海山池,今治市波方町波方,34.10975,132.9566111,https://www.city.imabari.ehime.jp/noudo/hazardmap/namikata/namikata_R3_11.pdf,波方地区,令和3年
263,a5K7F000001YlQiUAK,カラ池,今治市波方町波方,34.11183333,132.9569444,https://www.city.imabari.ehime.jp/noudo/hazardmap/namikata/namikata_R3_12.pdf,波方地区,令和3年
264,a5K7F000001YlQjUAK,大池,今治市波方町波方,34.11530556,132.9560833,https://www.city.imabari.ehime.jp/noudo/hazardmap/namikata/namikata_R3_13.pdf,波方地区,令和3年
265,a5K7F000001YlQkUAK,芳ヶ谷池,今治市波方町大浦,34.11347222,132.9621667,https://www.city.imabari.ehime.jp/noudo/hazardmap/namikata/namikata_R3_14.pdf,波方地区,令和3年
266,a5K7F000001YlQlUAK,寺池,今治市波方町大浦,34.11263889,132.9620833,https://www.city.imabari.ehime.jp/noudo/hazardmap/namikata/namikata_R3_15.pdf,波方地区,令和3年
267,a5K7F000001YlQmUAK,大浦池,今治市波方町大浦,34.11230556,132.9635278,https://www.city.imabari.ehime.jp/noudo/hazardmap/namikata/namikata_R3_16.pdf,波方地区,令和3年
268,a5K7F000001YlQnUAK,コニ池,今治市波方町郷,34.10561111,132.9597222,https://www.city.imabari.ehime.jp/noudo/hazardmap/namikata/namikata_R3_17.pdf,波方地区,令和3年
269,a5K7F000001YlQoUAK,恵毛谷池,今治市波方町樋口,34.10186111,132.9558611,https://www.city.imabari.ehime.jp/noudo/hazardmap/namikata/namikata_R3_18.pdf,波方地区,令和3年
270,a5K7F000001YlQpUAK,深田池,今治市波方町樋口,34.09544444,132.9514167,https://www.city.imabari.ehime.jp/noudo/hazardmap/namikata/namikata_R3_19.pdf,波方地区,令和3年
271,a5K7F000001YlQqUAK,松窪池,今治市波方町樋口,34.09419444,132.95175,https://www.city.imabari.ehime.jp/noudo/hazardmap/namikata/namikata_R3_20.pdf,波方地区,令和3年
272,a5K7F000001YlQrUAK,大亀池,今治市波方町樋口,34.09430556,132.9498333,https://www.city.imabari.ehime.jp/noudo/hazardmap/namikata/namikata_R3_21.pdf,波方地区,令和3年
273,a5K7F000001YlQsUAK,後谷池,今治市波方町樋口,34.09344444,132.9469722,https://www.city.imabari.ehime.jp/noudo/hazardmap/namikata/namikata_R3_22.pdf,波方地区,令和3年
274,a5K7F000001YlQtUAK,大平池,今治市波方町樋口,34.0905,132.945,https://www.city.imabari.ehime.jp/noudo/hazardmap/namikata/namikata_R3_23.pdf,波方地区,令和3年
275,a5K7F000001YlQwUAK,湯ノ奥池,今治市波方町樋口,34.09147222,132.9393889,https://www.city.imabari.ehime.jp/noudo/hazardmap/namikata/namikata_R3_24.pdf,波方地区,令和3年
276,a5K7F000001YlQxUAK,西窪池,今治市波方町樋口,34.09241667,132.9382222,https://www.city.imabari.ehime.jp/noudo/hazardmap/namikata/namikata_R3_25.pdf,波方地区,令和3年
277,a5K7F000001YlR0UAK,ハメ谷池,今治市波方町樋口,34.10205556,132.9360556,https://www.city.imabari.ehime.jp/noudo/hazardmap/namikata/namikata_R3_26.pdf,波方地区,令和3年
278,a5K7F000001YlR1UAK,湯ノ谷池,今治市波方町養老,34.102,132.9449444,https://www.city.imabari.ehime.jp/noudo/hazardmap/namikata/namikata_R3_27.pdf,波方地区,令和3年
279,a5K7F000001YlR2UAK,養老深田池,今治市波方町養老,34.10677778,132.9390278,https://www.city.imabari.ehime.jp/noudo/hazardmap/namikata/namikata_R3_28.pdf,波方地区,令和3年
280,a5K7F000001YlR3UAK,末池,今治市波方町養老,34.10891667,132.9394722,https://www.city.imabari.ehime.jp/noudo/hazardmap/namikata/namikata_R3_29.pdf,波方地区,令和3年
281,a5K7F000001YlR4UAK,用呂越上池,今治市波方町養老,34.11558333,132.9381944,https://www.city.imabari.ehime.jp/noudo/hazardmap/namikata/namikata_R3_30.pdf,波方地区,令和3年
282,a5K7F000001YlR5UAK,用呂越下池,今治市波方町養老,34.11475,132.9394167,https://www.city.imabari.ehime.jp/noudo/hazardmap/namikata/namikata_R3_31.pdf,波方地区,令和3年
283,a5K7F000001YlR6UAK,藤ノ目池,今治市波方町養老,34.11058333,132.9448056,https://www.city.imabari.ehime.jp/noudo/hazardmap/namikata/namikata_R3_32.pdf,波方地区,令和3年
284,a5K7F000001YlR7UAK,小部池,今治市波方町岡,34.10858333,132.9319167,https://www.city.imabari.ehime.jp/noudo/hazardmap/namikata/namikata_R3_33.pdf,波方地区,令和3年
285,a5K7F000001YlR8UAK,岡池,今治市波方町岡,34.10875,132.9328333,https://www.city.imabari.ehime.jp/noudo/hazardmap/namikata/namikata_R3_34.pdf,波方地区,令和3年
286,a5K7F000001YlR9UAK,岡新池,今治市波方町岡,34.10883333,132.9343056,https://www.city.imabari.ehime.jp/noudo/hazardmap/namikata/namikata_R3_35.pdf,波方地区,令和3年
287,a5K7F000001YlUYUA0,中浦池,今治市波方町宮崎,34.1155,132.9098333,https://www.city.imabari.ehime.jp/noudo/hazardmap/namikata/namikata_R3_36.pdf,波方地区,令和3年
288,a5K7F000001YlUZUA0,ウネントウ池,今治市波方町馬刀潟,34.1125,132.9266667,https://www.city.imabari.ehime.jp/noudo/hazardmap/namikata/namikata_R3_37.pdf,波方地区,令和3年
289,a5K7F000001YlUaUAK,中谷池,今治市波方町森上,34.11930556,132.9298889,https://www.city.imabari.ehime.jp/noudo/hazardmap/namikata/namikata_R3_38.pdf,波方地区,令和3年
290,a5K7F000001YlUbUAK,西浦池,今治市波方町西浦,34.12941667,132.9391389,https://www.city.imabari.ehime.jp/noudo/hazardmap/namikata/namikata_R3_39.pdf,波方地区,令和3年
295,a5K7F000001YlQyUAK,沢池,今治市波方町樋口,34.09666667,132.9384444,https://www.city.imabari.ehime.jp/noudo/hazardmap/namikata/namikata_sawaike.pdf?1,波方地区,
298,a5K7F000001YlQgUAK,巡池,今治市波方町波方,34.11441667,132.9509722,https://www.city.imabari.ehime.jp/noudo/hazardmap/namikata/namikata_meguriike.pdf,波方地区,
300,a5K7F000001YlUdUAK,大久保池,今治市波方町西浦,34.12852778,132.9436667,https://www.city.imabari.ehime.jp/noudo/hazardmap/namikata/namikata_okubo.pdf,波方地区,
301,a5K7F000001YlRAUA0,小池（別府）,今治市大西町別府,34.06166667,132.8996944,https://www.city.imabari.ehime.jp/noudo/hazardmap/onishi/onishi_R4_01.pdf?1,大西地区,令和4年
302,a5K7F000001YlRBUA0,西池,今治市大西町別府,34.05547222,132.8920833,https://www.city.imabari.ehime.jp/noudo/hazardmap/onishi/onishi_R4_02.pdf?1,大西地区,令和4年
303,a5K7F000001YlRCUA0,奥寄池,今治市大西町別府,34.05708333,132.8993889,https://www.city.imabari.ehime.jp/noudo/hazardmap/onishi/onishi_R4_03.pdf?1,大西地区,令和4年
304,a5K7F000001YlRDUA0,下池,今治市大西町別府,34.06005556,132.8977778,https://www.city.imabari.ehime.jp/noudo/hazardmap/onishi/onishi_R4_04.pdf?1,大西地区,令和4年
305,a5K7F000001YlREUA0,屋敷池,今治市大西町星浦,34.04705556,132.8992778,https://www.city.imabari.ehime.jp/noudo/hazardmap/onishi/onishi_R4_05.pdf?1,大西地区,令和4年
306,a5K7F000001YlRFUA0,小池（脇）,今治市大西町脇,34.05866667,132.9123889,https://www.city.imabari.ehime.jp/noudo/hazardmap/onishi/onishi_R4_06.pdf?1,大西地区,令和4年
307,a5K7F000001YlRGUA0,鳥越池,今治市大西町脇,34.05413889,132.9104722,https://www.city.imabari.ehime.jp/noudo/hazardmap/onishi/onishi_R4_07.pdf?1,大西地区,令和4年
308,a5K7F000001YlRIUA0,中之谷池,今治市大西町脇,34.04805556,132.909,https://www.city.imabari.ehime.jp/noudo/hazardmap/onishi/onishi_R4_08.pdf?1,大西地区,令和4年
309,a5K7F000001YlRKUA0,堂池（脇）,今治市大西町脇,34.05005556,132.9138056,https://www.city.imabari.ehime.jp/noudo/hazardmap/onishi/onishi_R4_09.pdf?1,大西地区,令和4年
310,a5K7F000001YlRLUA0,前池（脇）,今治市大西町脇,34.05072222,132.9161111,https://www.city.imabari.ehime.jp/noudo/hazardmap/onishi/onishi_R4_10.pdf?1,大西地区,令和4年
311,a5K7F000001YlRMUA0,堂池（山之内）,今治市大西町山之内,34.041,132.9138333,https://www.city.imabari.ehime.jp/noudo/hazardmap/onishi/onishi_R4_11.pdf?1,大西地区,令和4年
312,a5K7F000001YlRNUA0,大谷池,今治市大西町山之内,34.03994444,132.9064722,https://www.city.imabari.ehime.jp/noudo/hazardmap/onishi/onishi_R4_12.pdf?1,大西地区,令和4年
313,a5K7F000001YlRQUA0,小切池,今治市大西町山之内,34.04441667,132.9215833,https://www.city.imabari.ehime.jp/noudo/hazardmap/onishi/onishi_R4_13.pdf?1,大西地区,令和4年
314,a5K7F000001YlRRUA0,桑坂池,今治市大西町山之内,34.04997222,132.9244444,https://www.city.imabari.ehime.jp/noudo/hazardmap/onishi/onishi_R4_14.pdf?1,大西地区,令和4年
315,a5K7F000001YlRSUA0,皆廻池,今治市大西町宮脇,34.06008333,132.9280833,https://www.city.imabari.ehime.jp/noudo/hazardmap/onishi/onishi_R4_15.pdf?1,大西地区,令和4年
316,a5K7F000001YlRTUA0,女田池,今治市大西町宮脇,34.0525,132.9325278,https://www.city.imabari.ehime.jp/noudo/hazardmap/onishi/onishi_R4_16.pdf?1,大西地区,令和4年
317,a5K7F000001YlRUUA0,伊屋谷池,今治市大西町宮脇,34.05163889,132.9350833,https://www.city.imabari.ehime.jp/noudo/hazardmap/onishi/onishi_R4_17.pdf?1,大西地区,令和4年
318,a5K7F000001YlRVUA0,小谷池,今治市大西町宮脇,34.048,132.9301111,https://www.city.imabari.ehime.jp/noudo/hazardmap/onishi/onishi_R4_18.pdf?1,大西地区,令和4年
319,a5K7F000001YlRXUA0,三皿新池,今治市大西町宮脇,34.05258333,132.9261111,https://www.city.imabari.ehime.jp/noudo/hazardmap/onishi/onishi_R4_19.pdf?1,大西地区,令和4年
320,a5K7F000001YlRYUA0,才鳥池,今治市大西町宮脇,34.05566667,132.9244722,https://www.city.imabari.ehime.jp/noudo/hazardmap/onishi/onishi_R4_20.pdf?2,大西地区,令和4年
321,a5K7F000001YlRZUA0,森池,今治市大西町宮脇,34.05288889,132.9293611,https://www.city.imabari.ehime.jp/noudo/hazardmap/onishi/onishi_R4_22.pdf?1,大西地区,令和4年
322,a5K7F000001YlRaUAK,噺下池,今治市大西町紺原,34.06225,132.9340556,https://www.city.imabari.ehime.jp/noudo/hazardmap/onishi/onishi_R4_23.pdf?1,大西地区,令和4年
323,a5K7F000001YlRcUAK,中池（新町）,今治市大西町新町,34.06138889,132.93125,https://www.city.imabari.ehime.jp/noudo/hazardmap/onishi/onishi_R4_24.pdf?1,大西地区,令和4年
324,a5K7F000001YlRdUAK,荒神池,今治市大西町新町,34.06247222,132.9308889,https://www.city.imabari.ehime.jp/noudo/hazardmap/onishi/onishi_R4_25.pdf?1,大西地区,令和4年
325,a5K7F000001YlReUAK,円山池,今治市大西町宮脇,34.06147222,132.9270278,https://www.city.imabari.ehime.jp/noudo/hazardmap/onishi/onishi_R4_26.pdf?1,大西地区,令和4年
326,a5K7F000001YlRfUAK,汐越池,今治市大西町紺原,34.06330556,132.9410556,https://www.city.imabari.ehime.jp/noudo/hazardmap/onishi/onishi_R4_27.pdf?1,大西地区,令和4年
327,a5K7F000001YlRgUAK,かずわら池,今治市大西町紺原,34.06397222,132.9349444,https://www.city.imabari.ehime.jp/noudo/hazardmap/onishi/onishi_R4_28.pdf?1,大西地区,令和4年
328,a5K7F000001YlRhUAK,宮ノ浦池,今治市大西町九王,34.07552778,132.9347222,https://www.city.imabari.ehime.jp/noudo/hazardmap/onishi/onishi_R4_29.pdf?1,大西地区,令和4年
329,a5K7F000001YlRiUAK,城部池,今治市大西町九王,34.07766667,132.9325833,https://www.city.imabari.ehime.jp/noudo/hazardmap/onishi/onishi_R4_30.pdf?1,大西地区,令和4年
330,a5K7F000001YlRjUAK,古池,今治市大西町九王,34.08494444,132.9328889,https://www.city.imabari.ehime.jp/noudo/hazardmap/onishi/onishi_R4_31.pdf?1,大西地区,令和4年
331,a5K7F000001YlRkUAK,新池（九王）,今治市大西町九王,34.08558333,132.9339722,https://www.city.imabari.ehime.jp/noudo/hazardmap/onishi/onishi_R4_32.pdf?1,大西地区,令和4年
332,a5K7F000001YlRlUAK,長越池,今治市大西町九王,34.08319444,132.9283611,https://www.city.imabari.ehime.jp/noudo/hazardmap/onishi/onishi_R4_33.pdf?1,大西地区,令和4年
333,a5K7F000001YlRmUAK,九左エ門池,今治市大西町九王,34.07788889,132.9258056,https://www.city.imabari.ehime.jp/noudo/hazardmap/onishi/onishi_R4_34.pdf?1,大西地区,令和4年
334,a5K7F000001YlRoUAK,大池,今治市大西町紺原,34.06722222,132.9423056,https://www.city.imabari.ehime.jp/noudo/hazardmap/onishi/onishi_R4_35.pdf?1,大西地区,令和4年
335,a5K7F000001YlRuUAK,高口池,今治市大西町九王,34.09294444,132.9330833,https://www.city.imabari.ehime.jp/noudo/hazardmap/onishi/onishi_R4_36.pdf?1,大西地区,令和4年
336,a5K7F000001YlUyUAK,谷ノ口池,今治市大西町山之内,34.04358333,132.9101111,https://www.city.imabari.ehime.jp/noudo/hazardmap/onishi/onishi_R4_37.pdf?1,大西地区,令和4年
337,a5K7F000001YlUzUAK,楠池,今治市大西町山之内,34.045,132.9124167,https://www.city.imabari.ehime.jp/noudo/hazardmap/onishi/onishi_R4_38.pdf?1,大西地区,令和4年
338,a5K7F000001YlV0UAK,ヤンゲ池,今治市大西町山之内,34.04105556,132.9236389,https://www.city.imabari.ehime.jp/noudo/hazardmap/onishi/onishi_R4_39.pdf?1,大西地区,令和4年
339,a5K7F000001YlV1UAK,古寺池,今治市大西町山之内,34.04247222,132.9240278,https://www.city.imabari.ehime.jp/noudo/hazardmap/onishi/onishi_R4_40.pdf?1,大西地区,令和4年
340,a5K7F000001YlV2UAK,谷勝池,今治市大西町山之内,34.04780556,132.9242222,https://www.city.imabari.ehime.jp/noudo/hazardmap/onishi/onishi_R4_41.pdf?1,大西地区,令和4年
341,a5K7F000001YlV3UAK,三ツ池,今治市大西町山之内,34.04858333,132.925,https://www.city.imabari.ehime.jp/noudo/hazardmap/onishi/onishi_R4_42.pdf?1,大西地区,令和4年
342,a5K7F000001YlV4UAK,寺谷池,今治市大西町宮脇,34.05727778,132.93225,https://www.city.imabari.ehime.jp/noudo/hazardmap/onishi/onishi_R4_43.pdf?1,大西地区,令和4年
343,a5K7F000001YlV5UAK,拝田池,今治市大西町宮脇,34.05611111,132.9336667,https://www.city.imabari.ehime.jp/noudo/hazardmap/onishi/onishi_R4_44.pdf?1,大西地区,令和4年
344,a5K7F000001YlV6UAK,三皿古池,今治市大西町宮脇,34.0515,132.9274444,https://www.city.imabari.ehime.jp/noudo/hazardmap/onishi/onishi_R4_45.pdf?1,大西地区,令和4年
345,a5K7F000001YlV7UAK,前池（紺原）,今治市大西町紺原,34.06341667,132.9364167,https://www.city.imabari.ehime.jp/noudo/hazardmap/onishi/onishi_R4_46.pdf?1,大西地区,令和4年
346,a5K7F000001YlV8UAK,奥ノ谷池,今治市大西町九王,34.08630556,132.9270833,https://www.city.imabari.ehime.jp/noudo/hazardmap/onishi/onishi_R4_47.pdf?1,大西地区,令和4年
347,a5K7F000001YlV9UAK,珍子谷池,今治市大西町九王,34.0825,132.9263611,https://www.city.imabari.ehime.jp/noudo/hazardmap/onishi/onishi_R4_48.pdf?1,大西地区,令和4年
362,a5K7F000001YlRHUA0,御城池,今治市大西町脇,34.05580556,132.9164167,https://www.city.imabari.ehime.jp/noudo/hazardmap/onishi/onishi_osiroike.pdf,大西地区,
363,a5K7F000001YlRPUA0,谷池,今治市大西町山之内,34.04294444,132.9183611,https://www.city.imabari.ehime.jp/noudo/hazardmap/onishi/onishi_yamadaike_taniike.pdf,大西地区,
363,a5K7F000001YlROUA0,山田池,今治市大西町山之内,34.04402778,132.9186389,https://www.city.imabari.ehime.jp/noudo/hazardmap/onishi/onishi_yamadaike_taniike.pdf,大西地区,
364,a5K7F000001YlRbUAK,噺中池,今治市大西町紺原,34.06133333,132.9345556,https://www.city.imabari.ehime.jp/noudo/hazardmap/onishi/onishi_hanasinonakaike.pdf,大西地区,
365,a5K7F000001YlRJUA0,新池（脇）,今治市大西町脇,34.04963889,132.9107778,https://www.city.imabari.ehime.jp/noudo/hazardmap/onishi/onishi_sinike_waki.pdf,大西地区,
366,a5K7F000001YlRpUAK,カバ池,今治市大西町星浦,34.05588889,132.9068889,https://www.city.imabari.ehime.jp/noudo/hazardmap/onishi/onishi_kabaike.pdf,大西地区,
367,a5K7F000001YlRrUAK,万奥池,今治市大西町別府,34.056,132.8951667,https://www.city.imabari.ehime.jp/noudo/hazardmap/onishi/onishi_manokuike.pdf,大西地区,
368,a5K7F000001YlRqUAK,新池（平田池）,今治市大西町星浦,34.04408333,132.9024722,https://www.city.imabari.ehime.jp/noudo/hazardmap/onishi/onishi_sinike_hirataike.pdf,大西地区,
369,a5K7F000001YlRsUAK,新池（山之内）,今治市大西町山之内,34.03538889,132.9021111,https://www.city.imabari.ehime.jp/noudo/hazardmap/onishi/onishi_sinike_yamanouchi.pdf,大西地区,
370,a5K7F000001YlRWUA0,重茂池,今治市大西町宮脇,34.04380556,132.92975,https://www.city.imabari.ehime.jp/noudo/hazardmap/onishi/onishi_jyumoike.pdf,大西地区,
371,a5K7F000001YlRnUAK,本谷池,今治市大西町宮脇,34.04572222,132.9293056,https://www.city.imabari.ehime.jp/noudo/hazardmap/onishi/onishi_hontaniike.pdf,大西地区,
372,a5K7F000001YlRwUAK,畑三郎下池,今治市菊間町西山,34.00688889,132.8261389,https://www.city.imabari.ehime.jp/noudo/hazardmap/kikuma/kikuma_R4_01.pdf?1,菊間地区,令和4年
373,a5K7F000001YlRxUAK,簧ヶ谷下池,今治市菊間町西山,34.00586111,132.8256389,https://www.city.imabari.ehime.jp/noudo/hazardmap/kikuma/kikuma_R4_02.pdf?1,菊間地区,令和4年
374,a5K7F000001YlRyUAK,後谷池,今治市菊間町西山,34.00594444,132.8344444,https://www.city.imabari.ehime.jp/noudo/hazardmap/kikuma/kikuma_R4_03.pdf?1,菊間地区,令和4年
375,a5K7F000001YlRzUAK,峠下池（西山峠）,今治市菊間町西山,34.00516667,132.8391111,https://www.city.imabari.ehime.jp/noudo/hazardmap/kikuma/kikuma_R4_04.pdf?1,菊間地区,令和4年
376,a5K7F000001YlS1UAK,加茂池,今治市菊間町浜,34.03438889,132.85175,https://www.city.imabari.ehime.jp/noudo/hazardmap/kikuma/kikuma_R4_05.pdf?1,菊間地区,令和4年
377,a5K7F000001YlS4UAK,本谷池,今治市菊間町高田,34.02805556,132.8513611,https://www.city.imabari.ehime.jp/noudo/hazardmap/kikuma/kikuma_R4_06.pdf?1,菊間地区,令和4年
378,a5K7F000001YlS5UAK,新池（高田）,今治市菊間町高田,34.023,132.8481667,https://www.city.imabari.ehime.jp/noudo/hazardmap/kikuma/kikuma_R4_07.pdf?1,菊間地区,令和4年
379,a5K7F000001YlS7UAK,小乙女池,今治市菊間町高田,34.02013889,132.8463611,https://www.city.imabari.ehime.jp/noudo/hazardmap/kikuma/kikuma_R4_08.pdf?1,菊間地区,令和4年
380,a5K7F000001YlS8UAK,清水池,今治市菊間町池原,34.03502778,132.8574722,https://www.city.imabari.ehime.jp/noudo/hazardmap/kikuma/kikuma_R4_09.pdf?1,菊間地区,令和4年
381,a5K7F000001YlVEUA0,棚坂池,今治市菊間町種,34.05336111,132.8659722,https://www.city.imabari.ehime.jp/noudo/hazardmap/kikuma/kikuma_R4_10.pdf?1,菊間地区,令和4年
382,a5K7F000001YlVFUA0,魚谷池,今治市菊間町種,34.03669444,132.8810833,https://www.city.imabari.ehime.jp/noudo/hazardmap/kikuma/kikuma_R4_11.pdf?1,菊間地区,令和4年
383,a5K7F000001YlVHUA0,冠者池,今治市菊間町佐方,34.05369444,132.8842222,https://www.city.imabari.ehime.jp/noudo/hazardmap/kikuma/kikuma_R4_12.pdf?1,菊間地区,令和4年
384,a5K7F000001YlS9UAK,五反地池,今治市菊間町池原,34.04197222,132.8613333,https://www.city.imabari.ehime.jp/noudo/hazardmap/kikuma/kikuma_R4_13.pdf?1,菊間地区,令和4年
385,a5K7F000001YlSAUA0,峠池,今治市菊間町池原,34.03430556,132.8621667,https://www.city.imabari.ehime.jp/noudo/hazardmap/kikuma/kikuma_R4_14.pdf?1,菊間地区,令和4年
386,a5K7F000001YlSBUA0,明神池,今治市菊間町池原,34.027,132.8585556,https://www.city.imabari.ehime.jp/noudo/hazardmap/kikuma/kikuma_R4_15.pdf?1,菊間地区,令和4年
387,a5K7F000001YlSDUA0,上谷池,今治市菊間町池原,34.02916667,132.86625,https://www.city.imabari.ehime.jp/noudo/hazardmap/kikuma/kikuma_R4_16.pdf?1,菊間地区,令和4年
388,a5K7F000001YlSFUA0,竹之谷池,今治市菊間町中川,34.00930556,132.8513889,https://www.city.imabari.ehime.jp/noudo/hazardmap/kikuma/kikuma_R4_17.pdf?1,菊間地区,令和4年
389,a5K7F000001YlSGUA0,大畑池,今治市菊間町種,34.04577778,132.8619167,https://www.city.imabari.ehime.jp/noudo/hazardmap/kikuma/kikuma_R4_18.pdf?1,菊間地区,令和4年
390,a5K7F000001YlSHUA0,馬ノ背新池,今治市菊間町種,34.05013889,132.8694167,https://www.city.imabari.ehime.jp/noudo/hazardmap/kikuma/kikuma_R4_19.pdf?1,菊間地区,令和4年
391,a5K7F000001YlSKUA0,大谷池,今治市菊間町種,34.03691667,132.8723889,https://www.city.imabari.ehime.jp/noudo/hazardmap/kikuma/kikuma_R4_20.pdf?1,菊間地区,令和4年
392,a5K7F000001YlSLUA0,岩嶽池,今治市菊間町種,34.03491667,132.8711111,https://www.city.imabari.ehime.jp/noudo/hazardmap/kikuma/kikuma_R4_21.pdf?1,菊間地区,令和4年
393,a5K7F000001YlSMUA0,二反地池,今治市菊間町種,34.03672222,132.8855556,https://www.city.imabari.ehime.jp/noudo/hazardmap/kikuma/kikuma_R4_22.pdf?1,菊間地区,令和4年
394,a5K7F000001YlSNUA0,後谷池,今治市菊間町種,34.03080556,132.8833611,https://www.city.imabari.ehime.jp/noudo/hazardmap/kikuma/kikuma_R4_23.pdf?1,菊間地区,令和4年
395,a5K7F000001YlSOUA0,高城池,今治市菊間町佐方,34.05358333,132.8868056,https://www.city.imabari.ehime.jp/noudo/hazardmap/kikuma/kikuma_R4_24.pdf?1,菊間地区,令和4年
396,a5K7F000001YlSPUA0,新谷池,今治市菊間町佐方,34.04975,132.8826667,https://www.city.imabari.ehime.jp/noudo/hazardmap/kikuma/kikuma_R4_25.pdf?1,菊間地区,令和4年
397,a5K7F000001YlSSUA0,原田池,今治市菊間町佐方,34.04722222,132.8902778,https://www.city.imabari.ehime.jp/noudo/hazardmap/kikuma/kikuma_R4_26.pdf?1,菊間地区,令和4年
398,a5K7F000001YlSTUA0,数根尾池,今治市菊間町佐方,34.04730556,132.8920833,https://www.city.imabari.ehime.jp/noudo/hazardmap/kikuma/kikuma_R4_27.pdf?1,菊間地区,令和4年
399,a5K7F000001YlVAUA0,面高池,今治市菊間町長坂,34.02336111,132.8296944,https://www.city.imabari.ehime.jp/noudo/hazardmap/kikuma/kikuma_R4_28.pdf?1,菊間地区,令和4年
400,a5K7F000001YlVBUA0,峰越池,今治市菊間町長坂,34.02883333,132.8473889,https://www.city.imabari.ehime.jp/noudo/hazardmap/kikuma/kikuma_R4_29.pdf?1,菊間地区,令和4年
401,a5K7F000001YlVCUA0,岩坂池,今治市菊間町長坂,34.02794444,132.8392778,https://www.city.imabari.ehime.jp/noudo/hazardmap/kikuma/kikuma_R4_30.pdf?1,菊間地区,令和4年
406,a5K7F000001YlRvUAK,みどろ下池,今治市菊間町長坂,34.02675,132.8430833,https://www.city.imabari.ehime.jp/noudo/hazardmap/kikuma/kikuma_midorosimoike.pdf,菊間地区,
407,a5K7F000001YlS0UAK,阿原子池,今治市菊間町浜,34.041,132.8513333,https://www.city.imabari.ehime.jp/noudo/hazardmap/kikuma/kikuma_abarakoike.pdf,菊間地区,
408,a5K7F000001YlS6UAK,高田池（高田）,今治市菊間町高田,34.01825,132.8402222,https://www.city.imabari.ehime.jp/noudo/hazardmap/kikuma/kikuma_koudaike.pdf,菊間地区,
409,a5K7F000001YlVSUA0,歌仙ダム,今治市菊間町松尾,34.01349444,132.8722583,https://www.city.imabari.ehime.jp/noudo/hazardmap/kikuma/kikuma_kasen.pdf,菊間地区,
411,a5K7F000001YlSRUA0,堤池,今治市菊間町佐方,34.04463889,132.8843333,https://www.city.imabari.ehime.jp/noudo/hazardmap/kikuma/kikuma_tutumiike.pdf,菊間地区,
412,a5K7F000001YlSUUA0,防象池,今治市菊間町佐方,34.04475,132.895,https://www.city.imabari.ehime.jp/noudo/hazardmap/kikuma/kikuma_bouzoike.pdf,菊間地区,
413,a5K7F000001YlSJUA0,尾谷池,今治市菊間町種,34.04530556,132.8738611,https://www.city.imabari.ehime.jp/noudo/hazardmap/kikuma/kikuma_odaniike.pdf,菊間地区,
414,a5K7F000001YlSQUA0,光野池,今治市菊間町佐方,34.04008333,132.8823333,https://www.city.imabari.ehime.jp/noudo/hazardmap/kikuma/kikuma_mitunoike.pdf,菊間地区,
415,a5K7F000001YlVGUA0,平松池,今治市菊間町種,34.02933333,132.8870556,https://www.city.imabari.ehime.jp/noudo/hazardmap/kikuma/kikuma_hiramatuike.pdf,菊間地区,
416,a5K7F000001YlSIUA0,保江池,今治市菊間町種,34.04425,132.8660833,https://www.city.imabari.ehime.jp/noudo/hazardmap/kikuma/kikuma_hoeike.pdf,菊間地区,
417,a5K7F000001YlS2UAK,鈴ヶ谷池,今治市菊間町浜,34.03588889,132.8539167,https://www.city.imabari.ehime.jp/noudo/hazardmap/kikuma/kikuma_suzugataniike.pdf,菊間地区,
418,a5K7F000001YlSCUA0,上谷下池,今治市菊間町池原,34.02880556,132.8642222,https://www.city.imabari.ehime.jp/noudo/hazardmap/kikuma/kikuma_kamitanisimoike.pdf,菊間地区,
419,a5K7F000001YlS3UAK,蔵ノ谷池,今治市菊間町浜,34.03030556,132.85025,https://www.city.imabari.ehime.jp/noudo/hazardmap/kikuma/kikuma_kuranotaniike.pdf,菊間地区,
421,a5K7F000001YlSEUA0,炭屋谷池,今治市菊間町川上,34.01336111,132.8620278,https://www.city.imabari.ehime.jp/noudo/hazardmap/kikuma/kikuma_sumiyataniike.pdf,菊間地区,
424,a5K7F000001YlVDUA0,宮間口池,今治市菊間町西山,34.00661111,132.8295278,https://www.city.imabari.ehime.jp/noudo/hazardmap/kikuma/kikuma_miyamaguchiike.pdf,菊間地区,
425,a5K7F000001YlSVUA0,山田池,今治市吉海町田浦,34.18380556,133.0328889,https://www.city.imabari.ehime.jp/noudo/hazardmap/yoshiumi/yoshiumi_R3_01.pdf,吉海地区,令和3年
426,a5K7F000001YlSWUA0,蕨川池,今治市吉海町田浦,34.18,133.0297778,https://www.city.imabari.ehime.jp/noudo/hazardmap/yoshiumi/yoshiumi_R3_02.pdf,吉海地区,令和3年
427,a5K7F000001YlSXUA0,北谷池,今治市吉海町泊,34.17694444,133.0304167,https://www.city.imabari.ehime.jp/noudo/hazardmap/yoshiumi/yoshiumi_R3_03.pdf,吉海地区,令和3年
428,a5K7F000001YlSZUA0,北坂池,今治市吉海町福田,34.15722222,133.04725,https://www.city.imabari.ehime.jp/noudo/hazardmap/yoshiumi/yoshiumi_R3_04.pdf,吉海地区,令和3年
429,a5K7F000001YlSaUAK,上所池,今治市吉海町福田,34.15316667,133.0484167,https://www.city.imabari.ehime.jp/noudo/hazardmap/yoshiumi/yoshiumi_R3_05.pdf,吉海地区,令和3年
430,a5K7F000001YlSbUAK,貞池,今治市吉海町福田,34.15147222,133.0518056,https://www.city.imabari.ehime.jp/noudo/hazardmap/yoshiumi/yoshiumi_R3_06.pdf,吉海地区,令和3年
431,a5K7F000001YlScUAK,原池,今治市吉海町仁江,34.15161111,133.0553611,https://www.city.imabari.ehime.jp/noudo/hazardmap/yoshiumi/yoshiumi_R3_07.pdf,吉海地区,令和3年
432,a5K7F000001YlSfUAK,江良池,今治市吉海町仁江,34.14458333,133.0562778,https://www.city.imabari.ehime.jp/noudo/hazardmap/yoshiumi/yoshiumi_R3_08.pdf,吉海地区,令和3年
433,a5K7F000001YlSgUAK,小田池,今治市吉海町仁江,34.14358333,133.0535,https://www.city.imabari.ehime.jp/noudo/hazardmap/yoshiumi/yoshiumi_R3_09.pdf,吉海地区,令和3年
434,a5K7F000001YlShUAK,清水池,今治市吉海町仁江,34.14169444,133.0543889,https://www.city.imabari.ehime.jp/noudo/hazardmap/yoshiumi/yoshiumi_R3_10.pdf,吉海地区,令和3年
435,a5K7F000001YlSiUAK,八幡池,今治市吉海町八幡,34.14636111,133.0464722,https://www.city.imabari.ehime.jp/noudo/hazardmap/yoshiumi/yoshiumi_R3_11.pdf,吉海地区,令和3年
436,a5K7F000001YlSjUAK,後池,今治市吉海町本庄,34.14838889,133.0309722,https://www.city.imabari.ehime.jp/noudo/hazardmap/yoshiumi/yoshiumi_R3_12.pdf,吉海地区,令和3年
437,a5K7F000001YlSlUAK,桜谷池,今治市吉海町本庄,34.14491667,133.0233889,https://www.city.imabari.ehime.jp/noudo/hazardmap/yoshiumi/yoshiumi_R3_13.pdf,吉海地区,令和3年
438,a5K7F000001YlSmUAK,郡広池,今治市吉海町本庄,34.1455,133.0250278,https://www.city.imabari.ehime.jp/noudo/hazardmap/yoshiumi/yoshiumi_R3_14.pdf,吉海地区,令和3年
439,a5K7F000001YlSoUAK,久保池,今治市吉海町名,34.13394444,133.0321944,https://www.city.imabari.ehime.jp/noudo/hazardmap/yoshiumi/yoshiumi_R3_15.pdf,吉海地区,令和3年
440,a5K7F000001YlSrUAK,寺谷池,今治市吉海町名,34.12852778,133.0385,https://www.city.imabari.ehime.jp/noudo/hazardmap/yoshiumi/yoshiumi_R3_16.pdf,吉海地区,令和3年
441,a5K7F000001YlSsUAK,永地池,今治市吉海町名,34.12519444,133.0417778,https://www.city.imabari.ehime.jp/noudo/hazardmap/yoshiumi/yoshiumi_R3_17.pdf,吉海地区,令和3年
442,a5K7F000001YlStUAK,前田池,今治市吉海町南浦,34.11572222,133.0409444,https://www.city.imabari.ehime.jp/noudo/hazardmap/yoshiumi/yoshiumi_R3_18.pdf,吉海地区,令和3年
443,a5K7F000001YlVIUA0,志津見池,今治市吉海町仁江,34.13905556,133.0627222,https://www.city.imabari.ehime.jp/noudo/hazardmap/yoshiumi/yoshiumi_R3_19.pdf,吉海地区,令和3年
444,a5K7F000001YlVJUA0,前田池,今治市吉海町本庄,34.14605556,133.0341944,https://www.city.imabari.ehime.jp/noudo/hazardmap/yoshiumi/yoshiumi_R3_20.pdf,吉海地区,令和3年
445,a5K7F000001YlVKUA0,内井池,今治市吉海町椋名,34.1335,133.0211389,https://www.city.imabari.ehime.jp/noudo/hazardmap/yoshiumi/yoshiumi_R3_21.pdf,吉海地区,令和3年
446,a5K7F000001YlVLUA0,おむくな池,今治市吉海町椋名,34.13508333,133.0216111,https://www.city.imabari.ehime.jp/noudo/hazardmap/yoshiumi/yoshiumi_R3_22.pdf,吉海地区,令和3年
447,a5K7F000001YlVMUA0,なかや池,今治市吉海町椋名,34.13691667,133.0241111,https://www.city.imabari.ehime.jp/noudo/hazardmap/yoshiumi/yoshiumi_R3_23.pdf,吉海地区,令和3年
448,a5K7F000001YlVNUA0,こくぼ池,今治市吉海町椋名,34.13858333,133.0226389,https://www.city.imabari.ehime.jp/noudo/hazardmap/yoshiumi/yoshiumi_R3_24.pdf,吉海地区,令和3年
449,a5K7F000001YlVOUA0,もり池,今治市吉海町椋名,34.14055556,133.0210556,https://www.city.imabari.ehime.jp/noudo/hazardmap/yoshiumi/yoshiumi_R3_25.pdf,吉海地区,令和3年
456,a5K7F000001YlSnUAK,八田池,今治市吉海町本庄,34.13647222,133.0326667,https://www.city.imabari.ehime.jp/noudo/hazardmap/yoshiumi/yoshiumi_hattaike.pdf,吉海地区,
457,a5K7F000001YlSpUAK,長谷池,今治市吉海町名,34.13191667,133.0326111,https://www.city.imabari.ehime.jp/noudo/hazardmap/yoshiumi/yoshiumi_nagataniike.pdf,吉海地区,
458,a5K7F000001YlSqUAK,奥山池,今治市吉海町名,34.13566667,133.051,https://www.city.imabari.ehime.jp/noudo/hazardmap/yoshiumi/yoshiumi_okuyamaike.pdf,吉海地区,
459,a5K7F000001YlSeUAK,宮原池,今治市吉海町仁江,34.14927778,133.0631389,https://www.city.imabari.ehime.jp/noudo/hazardmap/yoshiumi/yoshiumi_miyabaraike.pdf,吉海地区,
460,a5K7F000001YlSYUA0,大槇池,今治市吉海町泊,34.17691667,133.0456111,https://www.city.imabari.ehime.jp/noudo/hazardmap/yoshiumi/oomakiike.pdf,吉海地区,
461,a5K7F000001YlSdUAK,寒風池,今治市吉海町仁江,34.15438889,133.0626111,https://www.city.imabari.ehime.jp/noudo/hazardmap/yoshiumi/samukazeike.pdf,吉海地区,
462,a5K7F000001YlSkUAK,楠谷池,今治市吉海町本庄,34.14413889,133.0270556,https://www.city.imabari.ehime.jp/noudo/hazardmap/yoshiumi/kusudaniike.pdf,吉海地区,
463,a5K7F000001YlSuUAK,神ノ木池,今治市宮窪町友浦,34.15083333,133.0765556,https://www.city.imabari.ehime.jp/noudo/hazardmap/miyakubo/miyakubo_R3_01.pdf,宮窪地区,令和3年
464,a5K7F000001YlSvUAK,神ノ木上池,今治市宮窪町友浦,34.15161111,133.0760278,https://www.city.imabari.ehime.jp/noudo/hazardmap/miyakubo/miyakubo_R3_02.pdf,宮窪地区,令和3年
465,a5K7F000001YlSwUAK,山田池（友浦）,今治市宮窪町友浦,34.15291667,133.0776944,https://www.city.imabari.ehime.jp/noudo/hazardmap/miyakubo/miyakubo_R3_03.pdf,宮窪地区,令和3年
466,a5K7F000001YlSxUAK,立石池,今治市宮窪町友浦,34.15527778,133.0794722,https://www.city.imabari.ehime.jp/noudo/hazardmap/miyakubo/miyakubo_R3_04.pdf,宮窪地区,令和3年
467,a5K7F000001YlSyUAK,柳奥池,今治市宮窪町友浦,34.16205556,133.0837222,https://www.city.imabari.ehime.jp/noudo/hazardmap/miyakubo/miyakubo_R3_05.pdf,宮窪地区,令和3年
468,a5K7F000001YlSzUAK,アシュウ池,今治市宮窪町友浦,34.16258333,133.0881667,https://www.city.imabari.ehime.jp/noudo/hazardmap/miyakubo/miyakubo_R3_06.pdf,宮窪地区,令和3年
469,a5K7F000001YlT0UAK,ナベタ池,今治市宮窪町友浦,34.16369444,133.0872778,https://www.city.imabari.ehime.jp/noudo/hazardmap/miyakubo/miyakubo_R3_07.pdf,宮窪地区,令和3年
470,a5K7F000001YlT1UAK,亀坂池,今治市宮窪町宮窪,34.16797222,133.0794167,https://www.city.imabari.ehime.jp/noudo/hazardmap/miyakubo/miyakubo_R3_08.pdf,宮窪地区,令和3年
471,a5K7F000001YlT2UAK,法地和池,今治市宮窪町宮窪,34.16772222,133.0773056,https://www.city.imabari.ehime.jp/noudo/hazardmap/miyakubo/miyakubo_R3_09.pdf,宮窪地区,令和3年
472,a5K7F000001YlT3UAK,数原上池,今治市宮窪町宮窪,34.16580556,133.0739167,https://www.city.imabari.ehime.jp/noudo/hazardmap/miyakubo/miyakubo_R3_10.pdf,宮窪地区,令和3年
473,a5K7F000001YlT4UAK,数原下池,今治市宮窪町宮窪,34.16722222,133.0744722,https://www.city.imabari.ehime.jp/noudo/hazardmap/miyakubo/miyakubo_R3_11.pdf,宮窪地区,令和3年
474,a5K7F000001YlT6UAK,カイモリ池,今治市宮窪町宮窪,34.1655,133.06275,https://www.city.imabari.ehime.jp/noudo/hazardmap/miyakubo/miyakubo_R3_12.pdf,宮窪地区,令和3年
475,a5K7F000001YlT7UAK,山田池,今治市宮窪町宮窪,34.1675,133.0611389,https://www.city.imabari.ehime.jp/noudo/hazardmap/miyakubo/miyakubo_R3_13.pdf,宮窪地区,令和3年
476,a5K7F000001YlT8UAK,カズラコ池,今治市宮窪町宮窪,34.17011111,133.0643611,https://www.city.imabari.ehime.jp/noudo/hazardmap/miyakubo/miyakubo_R3_14.pdf,宮窪地区,令和3年
477,a5K7F000001YlTAUA0,谷池,今治市宮窪町宮窪,34.176,133.0705556,https://www.city.imabari.ehime.jp/noudo/hazardmap/miyakubo/miyakubo_R3_15.pdf,宮窪地区,令和3年
478,a5K7F000001YlTBUA0,家ノ奥池,今治市宮窪町宮窪,34.18586111,133.0876389,https://www.city.imabari.ehime.jp/noudo/hazardmap/miyakubo/miyakubo_R3_16.pdf,宮窪地区,令和3年
479,a5K7F000001YlTCUA0,余所国下池,今治市宮窪町余所国,34.18530556,133.0647778,https://www.city.imabari.ehime.jp/noudo/hazardmap/miyakubo/miyakubo_R3_17.pdf,宮窪地区,令和3年
480,a5K7F000001YlTDUA0,余所国山田池,今治市宮窪町余所国,34.18786111,133.06075,https://www.city.imabari.ehime.jp/noudo/hazardmap/miyakubo/miyakubo_R3_18.pdf,宮窪地区,令和3年
481,a5K7F000001YlTEUA0,土井池,今治市宮窪町余所国,34.18916667,133.0575833,https://www.city.imabari.ehime.jp/noudo/hazardmap/miyakubo/miyakubo_R3_19.pdf,宮窪地区,令和3年
482,a5K7F000001YlTFUA0,雲地池,今治市宮窪町余所国,34.19008333,133.0554722,https://www.city.imabari.ehime.jp/noudo/hazardmap/miyakubo/miyakubo_R3_20.pdf,宮窪地区,令和3年
483,a5K7F000001YlTGUA0,早川古池,今治市宮窪町早川,34.18902778,133.0401667,https://www.city.imabari.ehime.jp/noudo/hazardmap/miyakubo/miyakubo_R3_21.pdf,宮窪地区,令和3年
484,a5K7F000001YlTHUA0,早川新池,今治市宮窪町早川,34.18791667,133.0400833,https://www.city.imabari.ehime.jp/noudo/hazardmap/miyakubo/miyakubo_R3_22.pdf,宮窪地区,令和3年
491,a5K7F000001YlT5UAK,長川池,今治市宮窪町宮窪,34.16047222,133.0683333,https://www.city.imabari.ehime.jp/noudo/hazardmap/miyakubo/miyakubo_nankawaike.pdf,宮窪地区,
492,a5K7F000001YlT9UAK,菅原池,今治市宮窪町宮窪,34.17252778,133.0691667,https://www.city.imabari.ehime.jp/noudo/hazardmap/miyakubo/miyakubo_sugawaraike.pdf,宮窪地区,
493,a5K7F000001YlTKUA0,大屋池,今治市伯方町木浦,34.20166667,133.1188889,https://www.city.imabari.ehime.jp/noudo/hazardmap/hakata/hakata_R4_01.pdf?1,伯方地区,令和4年
494,a5K7F000001YlTLUA0,梶明池,今治市伯方町木浦,34.19705556,133.1155556,https://www.city.imabari.ehime.jp/noudo/hazardmap/hakata/hakata_R4_02.pdf?1,伯方地区,令和4年
495,a5K7F000001YlTMUA0,久保の池,今治市伯方町木浦,34.20244444,133.10875,https://www.city.imabari.ehime.jp/noudo/hazardmap/hakata/hakata_R4_03.pdf?1,伯方地区,令和4年
496,a5K7F000001YlTNUA0,大深山池,今治市伯方町木浦,34.20566667,133.1091944,https://www.city.imabari.ehime.jp/noudo/hazardmap/hakata/hakata_R4_04.pdf?1,伯方地区,令和4年
497,a5K7F000001YlTOUA0,福羅池,今治市伯方町木浦,34.20966667,133.1133889,https://www.city.imabari.ehime.jp/noudo/hazardmap/hakata/hakata_R4_05.pdf?1,伯方地区,令和4年
498,a5K7F000001YlTPUA0,長谷池,今治市伯方町木浦,34.21202778,133.1080556,https://www.city.imabari.ehime.jp/noudo/hazardmap/hakata/hakata_R4_06.pdf?1,伯方地区,令和4年
499,a5K7F000001YlTQUA0,大古江池,今治市伯方町木浦,34.21613889,133.1027222,https://www.city.imabari.ehime.jp/noudo/hazardmap/hakata/hakata_R4_07.pdf?1,伯方地区,令和4年
500,a5K7F000001YlTRUA0,大作池,今治市伯方町有津,34.20538889,133.1015,https://www.city.imabari.ehime.jp/noudo/hazardmap/hakata/hakata_R4_08.pdf?1,伯方地区,令和4年
501,a5K7F000001YlTSUA0,前田池,今治市伯方町有津,34.20830556,133.0975278,https://www.city.imabari.ehime.jp/noudo/hazardmap/hakata/hakata_R4_09.pdf?1,伯方地区,令和4年
502,a5K7F000001YlTTUA0,ナメラ池,今治市伯方町有津,34.21088889,133.09575,https://www.city.imabari.ehime.jp/noudo/hazardmap/hakata/hakata_R4_10.pdf?1,伯方地区,令和4年
503,a5K7F000001YlTUUA0,国道第2池,今治市伯方町有津,34.20908333,133.0917778,https://www.city.imabari.ehime.jp/noudo/hazardmap/hakata/hakata_R4_11.pdf?1,伯方地区,令和4年
504,a5K7F000001YlTVUA0,国道第1池,今治市伯方町有津,34.20805556,133.0929722,https://www.city.imabari.ehime.jp/noudo/hazardmap/hakata/hakata_R4_12.pdf?1,伯方地区,令和4年
505,a5K7F000001YlTWUA0,有久保池,今治市伯方町有津,34.20616667,133.092,https://www.city.imabari.ehime.jp/noudo/hazardmap/hakata/hakata_R4_13.pdf?1,伯方地区,令和4年
506,a5K7F000001YlTXUA0,叶浦越池,今治市伯方町有津,34.20591667,133.0893611,https://www.city.imabari.ehime.jp/noudo/hazardmap/hakata/hakata_R4_14.pdf?1,伯方地区,令和4年
507,a5K7F000001YlTYUA0,平尾池,今治市伯方町有津,34.20383333,133.0919167,https://www.city.imabari.ehime.jp/noudo/hazardmap/hakata/hakata_R4_15.pdf?1,伯方地区,令和4年
508,a5K7F000001YlTZUA0,西側第2池,今治市伯方町叶浦,34.21222222,133.0738611,https://www.city.imabari.ehime.jp/noudo/hazardmap/hakata/hakata_R4_16.pdf?1,伯方地区,令和4年
509,a5K7F000001YlTaUAK,西側第1池,今治市伯方町叶浦,34.21022222,133.0757778,https://www.city.imabari.ehime.jp/noudo/hazardmap/hakata/hakata_R4_17.pdf?1,伯方地区,令和4年
510,a5K7F000001YlTbUAK,ダンボエ池,今治市伯方町叶浦,34.21125,133.0802778,https://www.city.imabari.ehime.jp/noudo/hazardmap/hakata/hakata_R4_18.pdf?1,伯方地区,令和4年
511,a5K7F000001YlTcUAK,富計の池,今治市伯方町叶浦,34.20877778,133.0783889,https://www.city.imabari.ehime.jp/noudo/hazardmap/hakata/hakata_R4_19.pdf?1,伯方地区,令和4年
512,a5K7F000001YlTdUAK,(叶浦)山田池,今治市伯方町叶浦,34.20727778,133.0843889,https://www.city.imabari.ehime.jp/noudo/hazardmap/hakata/hakata_R4_20.pdf?1,伯方地区,令和4年
513,a5K7F000001YlTeUAK,浜ノ上第1池,今治市伯方町叶浦,34.20172222,133.0785556,https://www.city.imabari.ehime.jp/noudo/hazardmap/hakata/hakata_R4_21.pdf?1,伯方地区,令和4年
514,a5K7F000001YlTfUAK,和佐田第2池,今治市伯方町伊方,34.22511111,133.0773889,https://www.city.imabari.ehime.jp/noudo/hazardmap/hakata/hakata_R4_22.pdf?1,伯方地区,令和4年
515,a5K7F000001YlTgUAK,和佐田第1池,今治市伯方町伊方,34.22736111,133.07525,https://www.city.imabari.ehime.jp/noudo/hazardmap/hakata/hakata_R4_23.pdf?1,伯方地区,令和4年
516,a5K7F000001YlThUAK,向山池,今治市伯方町伊方,34.22527778,133.0724167,https://www.city.imabari.ehime.jp/noudo/hazardmap/hakata/hakata_R4_24.pdf?1,伯方地区,令和4年
517,a5K7F000001YlTiUAK,奥池,今治市伯方町伊方,34.22483333,133.0730833,https://www.city.imabari.ehime.jp/noudo/hazardmap/hakata/hakata_R4_25.pdf?1,伯方地区,令和4年
518,a5K7F000001YlTjUAK,枝越ハス池,今治市伯方町伊方,34.21388889,133.06875,https://www.city.imabari.ehime.jp/noudo/hazardmap/hakata/hakata_R4_26.pdf?1,伯方地区,令和4年
519,a5K7F000001YlTkUAK,荒神第1池,今治市伯方町伊方,34.21316667,133.0709167,https://www.city.imabari.ehime.jp/noudo/hazardmap/hakata/hakata_R4_27.pdf?1,伯方地区,令和4年
520,a5K7F000001YlTlUAK,船越池,今治市伯方町北浦,34.23108333,133.1041667,https://www.city.imabari.ehime.jp/noudo/hazardmap/hakata/hakata_R4_28.pdf?1,伯方地区,令和4年
521,a5K7F000001YlTmUAK,小深山池,今治市伯方町北浦,34.22247222,133.0933333,https://www.city.imabari.ehime.jp/noudo/hazardmap/hakata/hakata_R4_29.pdf?1,伯方地区,令和4年
522,a5K7F000001YlTnUAK,松山寺池,今治市伯方町北浦,34.224,133.0914444,https://www.city.imabari.ehime.jp/noudo/hazardmap/hakata/hakata_R4_30.pdf?1,伯方地区,令和4年
523,a5K7F000001YlToUAK,小坂池（北浦）,今治市伯方町北浦,34.22677778,133.09175,https://www.city.imabari.ehime.jp/noudo/hazardmap/hakata/hakata_R4_31.pdf?1,伯方地区,令和4年
524,a5K7F000001YlTqUAK,大池,今治市伯方町北浦,34.22191667,133.0954722,https://www.city.imabari.ehime.jp/noudo/hazardmap/hakata/hakata_R4_32.pdf?1,伯方地区,令和4年
525,a5K7F000001YlTrUAK,新池,今治市伯方町北浦,34.21747222,133.0951944,https://www.city.imabari.ehime.jp/noudo/hazardmap/hakata/hakata_R4_33.pdf?1,伯方地区,令和4年
526,a5K7F000001YlVPUA0,神田池,今治市伯方町叶浦,34.20530556,133.07775,https://www.city.imabari.ehime.jp/noudo/hazardmap/hakata/hakata_R4_34.pdf?1,伯方地区,令和4年
527,a5K7F000001YlVQUA0,松山下池,今治市伯方町北浦,34.22338889,133.0923889,https://www.city.imabari.ehime.jp/noudo/hazardmap/hakata/hakata_R4_35.pdf?1,伯方地区,令和4年
534,a5K7F000001YlTIUA0,河原木塚池,今治市伯方町木浦,34.212,133.1259167,https://www.city.imabari.ehime.jp/noudo/hazardmap/hakata/hakata_R3_01.pdf,伯方地区,令和3年
535,a5K7F000001YlTJUA0,折口池,今治市伯方町木浦,34.21083333,133.1198333,https://www.city.imabari.ehime.jp/noudo/hazardmap/hakata/hakata_R3_02.pdf,伯方地区,令和3年
536,a5K7F000001YlTpUAK,ドンデ池,今治市伯方町北浦,34.21841667,133.0886389,https://www.city.imabari.ehime.jp/noudo/hazardmap/hakata/dondeike.pdf,伯方地区,
537,a5K7F000001YlTsUAK,神田池,今治市上浦町盛,34.29347222,133.0200833,https://www.city.imabari.ehime.jp/noudo/hazardmap/kamiura/kamiura_R4_01.pdf?1,上浦地区,令和4年
538,a5K7F000001YlTtUAK,田高田下池,今治市上浦町盛,34.29133333,133.02175,https://www.city.imabari.ehime.jp/noudo/hazardmap/kamiura/kamiura_R4_02.pdf?1,上浦地区,令和4年
539,a5K7F000001YlTuUAK,セガイ下池,今治市上浦町盛,34.28986111,133.0212222,https://www.city.imabari.ehime.jp/noudo/hazardmap/kamiura/kamiura_R4_03.pdf?1,上浦地区,令和4年
540,a5K7F000001YlTvUAK,セガイ上池,今治市上浦町盛,34.28963889,133.02,https://www.city.imabari.ehime.jp/noudo/hazardmap/kamiura/kamiura_R4_04.pdf?1,上浦地区,令和4年
541,a5K7F000001YlTwUAK,ミノコシ池,今治市上浦町盛,34.28802778,133.0248056,https://www.city.imabari.ehime.jp/noudo/hazardmap/kamiura/kamiura_R4_05.pdf?1,上浦地区,令和4年
542,a5K7F000001YlTxUAK,宮の下池,今治市上浦町井口,34.27172222,133.0340556,https://www.city.imabari.ehime.jp/noudo/hazardmap/kamiura/kamiura_R4_06.pdf?1,上浦地区,令和4年
543,a5K7F000001YlTyUAK,能敷池,今治市上浦町井口,34.25875,133.0346389,https://www.city.imabari.ehime.jp/noudo/hazardmap/kamiura/kamiura_R4_07.pdf?1,上浦地区,令和4年
544,a5K7F000001YlTzUAK,大池,今治市上浦町井口,34.26152778,133.0381389,https://www.city.imabari.ehime.jp/noudo/hazardmap/kamiura/kamiura_R4_08.pdf?1,上浦地区,令和4年
545,a5K7F000001YlU0UAK,小丸子池,今治市上浦町甘崎,34.24483333,133.0443611,https://www.city.imabari.ehime.jp/noudo/hazardmap/kamiura/kamiura_R4_09.pdf?1,上浦地区,令和4年
546,a5K7F000001YlU1UAK,三軒屋池,今治市上浦町甘崎,34.24377778,133.0485278,https://www.city.imabari.ehime.jp/noudo/hazardmap/kamiura/kamiura_R4_10.pdf?1,上浦地区,令和4年
547,a5K7F000001YlU2UAK,二ツ池,今治市上浦町甘崎,34.24275,133.0486111,https://www.city.imabari.ehime.jp/noudo/hazardmap/kamiura/kamiura_R4_11.pdf?1,上浦地区,令和4年
548,a5K7F000001YlU3UAK,家の空池,今治市上浦町甘崎,34.24161111,133.0488889,https://www.city.imabari.ehime.jp/noudo/hazardmap/kamiura/kamiura_R4_12.pdf?1,上浦地区,令和4年
549,a5K7F000001YlU4UAK,下の川池,今治市上浦町甘崎,34.23833333,133.0476389,https://www.city.imabari.ehime.jp/noudo/hazardmap/kamiura/kamiura_R4_13.pdf?1,上浦地区,令和4年
550,a5K7F000001YlU5UAK,殿田池,今治市上浦町甘崎,34.23591667,133.0471111,https://www.city.imabari.ehime.jp/noudo/hazardmap/kamiura/kamiura_R4_14.pdf?1,上浦地区,令和4年
551,a5K7F000001YlU6UAK,池の内上池,今治市上浦町瀬戸,34.23308333,133.0483333,https://www.city.imabari.ehime.jp/noudo/hazardmap/kamiura/kamiura_R4_15.pdf?1,上浦地区,令和4年
552,a5K7F000001YlU7UAK,池の内下池,今治市上浦町瀬戸,34.23316667,133.0486944,https://www.city.imabari.ehime.jp/noudo/hazardmap/kamiura/kamiura_R4_16.pdf?1,上浦地区,令和4年
553,a5K7F000001YlU8UAK,深田池,今治市上浦町瀬戸,34.2215,133.0499722,https://www.city.imabari.ehime.jp/noudo/hazardmap/kamiura/kamiura_R4_17.pdf?1,上浦地区,令和4年
557,a5K7F000001YlUBUA0,上浦ダム,今治市上浦町井口,34.25113889,133.0279722,https://www.city.imabari.ehime.jp/noudo/hazardmap/kamiura/kamiura_kamiuradam.pdf,上浦地区,
558,a5K7F000001YlU9UAK,三戸池,今治市上浦町盛,34.29047222,133.0148056,https://www.city.imabari.ehime.jp/noudo/hazardmap/kamiura/kamiura_takoutaueike.pdf,上浦地区,
559,a5K7F000001YlUAUA0,口ノ谷上池,今治市上浦町盛,34.281,133.02875,https://www.city.imabari.ehime.jp/noudo/hazardmap/kamiura/kuchinotaniueike.pdf,上浦地区,
560,a5K7F000001YlUCUA0,勘左エ門田池,今治市上浦町甘崎,34.24891667,133.04825,https://www.city.imabari.ehime.jp/noudo/hazardmap/kamiura/kanzaemondaike.pdf,上浦地区,
561,a5K7F000001YlUDUA0,奥山池,今治市上浦町瀬戸,34.23102778,133.0409167,https://www.city.imabari.ehime.jp/noudo/hazardmap/kamiura/okuyamaike.pdf,上浦地区,
562,a5K7F000001YlUEUA0,長田上池,今治市上浦町盛,34.29111111,133.0117778,https://www.city.imabari.ehime.jp/noudo/hazardmap/kamiura/nagataueike.pdf,上浦地区,
563,a5K7F000001YlUFUA0,頼近池,今治市大三島町肥海,34.2775,132.9970833,https://www.city.imabari.ehime.jp/noudo/hazardmap/omishima/omishima_R4_01.pdf,大三島地区,令和4年
564,a5K7F000001YlUHUA0,平石池,今治市大三島町野々江,34.21238889,132.9892778,https://www.city.imabari.ehime.jp/noudo/hazardmap/omishima/omishima_R4_02.pdf,大三島地区,令和4年
565,a5K7F000001YlUIUA0,峠池,今治市大三島町口総,34.21913889,132.976,https://www.city.imabari.ehime.jp/noudo/hazardmap/omishima/omishima_R4_03.pdf?1,大三島地区,令和4年
566,a5K7F000001YlUJUA0,上角池,今治市大三島町口総,34.21736111,132.9758889,https://www.city.imabari.ehime.jp/noudo/hazardmap/omishima/omishima_R4_04.pdf?2,大三島地区,令和4年
567,a5K7F000001YlUKUA0,田中池,今治市大三島町口総,34.21477778,132.9715278,https://www.city.imabari.ehime.jp/noudo/hazardmap/omishima/omishima_R4_05.pdf,大三島地区,令和4年
569,a5K7F000001YlUGUA0,浦伐池,今治市大三島町宮浦,34.24536111,133.01375,https://www.city.imabari.ehime.jp/noudo/hazardmap/omishima/omishima_uragiriike.pdf,大三島地区,
570,a5K7F000001YlULUA0,ワサダ池,今治市大三島町野々江,34.21097222,132.9848611,https://www.city.imabari.ehime.jp/noudo/hazardmap/omishima/wasadaike.pdf,大三島地区,