名称,テーマ,分類,所在地,リンク,緯度,経度
七五三ケ浦海岸,キャンプ場,観光情報 / スポーツ・レクリエーション,今治市波方町宮崎甲736番地,https://www.city.imabari.ehime.jp/kanko/spot/?a=161,34.11415213,132.8975552
上浦多々羅キャンプ場,キャンプ場,観光情報 / スポーツ・レクリエーション,今治市上浦町井口7523番地,https://imabari-shimanami.jp/tatara-camp/,34.25800004,133.0528632
今治市宮窪カレイ山展望公園,キャンプ場,観光情報 / スポーツ・レクリエーション,今治市宮窪町宮窪6355番地2,https://www.city.imabari.ehime.jp/kanko/spot/?a=186,34.18400002,133.0690233
今治市玉川ふれあいの森　キャンプ場,キャンプ場,観光情報 / スポーツ・レクリエーション,今治市玉川町鈍川庚730番地1,https://www.city.imabari.ehime.jp/kanko/spot/?a=148,33.975,132.9400386
今治市鴨池海岸公園,キャンプ場,観光情報 / スポーツ・レクリエーション,今治市大西町九王甲1168番地,https://www.city.imabari.ehime.jp/kanko/spot/?a=169,34.08257839,132.9233704
大三島台キャンプ場,キャンプ場,観光情報 / スポーツ・レクリエーション,今治市大三島町台5089番地,https://www.city.imabari.ehime.jp/kanko/spot/?a=235,34.23799998,132.992187
大角海浜公園,キャンプ場,観光情報 / スポーツ・レクリエーション,今治市波方町波方乙893番地1,https://www.city.imabari.ehime.jp/kanko/spot/?a=160,34.14075948,132.9415856
朝倉ダム湖畔・緑水公園,キャンプ場,観光情報 / スポーツ・レクリエーション,今治市朝倉上乙762番地2,https://www.city.imabari.ehime.jp/kanko/spot/?a=144,33.9565541,133.0073836
桜井海浜ふれあい広場,キャンプ場,観光情報 / スポーツ・レクリエーション,今治市桜井甲1130番地2,https://www.city.imabari.ehime.jp/kanko/spot/?a=136,34.00605488,133.0521865
見近島自然公園,キャンプ場,観光情報 / スポーツ・レクリエーション,今治市宮窪町大字宮窪7688番地2,https://www.city.imabari.ehime.jp/kanko/spot/?a=187,34.19560566,133.0746304
龍岡キャンプ場,キャンプ場,観光情報 / スポーツ・レクリエーション,今治市玉川町龍岡下,https://www.city.imabari.ehime.jp/kanko/spot/?a=155,33.99200002,132.9147838
今治市クリーンセンター,クリーンセンター,公共施設,今治市町谷甲394番地,http://bariclean.jp/,34.02199996,132.9989114
伯方中継センター,クリーンセンター,公共施設,今治市伯方町木浦甲2291番地,https://www.city.imabari.ehime.jp/kankyous/hakata.html,34.19500004,133.115428
大三島中継センター,クリーンセンター,公共施設,今治市大三島町宮浦1805,https://www.city.imabari.ehime.jp/kankyous/omishima.html,34.2570508,133.0194193
大島中継センター,クリーンセンター,公共施設,今治市宮窪町宮窪6533番地,https://www.city.imabari.ehime.jp/kankyous/oshima.html,34.19000004,133.0693763
今治市上浦レンタサイクルターミナル,サイクリング,観光情報,今治市上浦町井口9180番地2,https://www.city.imabari.ehime.jp/kanko/cycling/,34.25418121,133.0540183
今治市中央レンタサイクルターミナル,サイクリング,観光情報,今治市砂場町2丁目8番1号,https://www.city.imabari.ehime.jp/kanko/cycling/,34.11022514,132.9775218
今治市今治駅前レンタサイクルターミナル,サイクリング,観光情報,今治市北宝来町2丁目,https://www.city.imabari.ehime.jp/kanko/cycling/#terminal,34.06480052,132.9936694
今治市伯方レンタサイクルターミナル,サイクリング,観光情報,今治市伯方町叶浦甲1668番地1,https://www.city.imabari.ehime.jp/kanko/cycling/,34.20299472,133.0757113
今治市吉海レンタサイクルターミナル,サイクリング,観光情報,今治市吉海町名4520番地2,https://www.city.imabari.ehime.jp/kanko/cycling/,34.12777276,133.0218154
今治駅前サイクリングターミナル（i.i.imabari! Cycle Station）,サイクリング,観光情報,今治市北宝来町2丁目,https://www.city.imabari.ehime.jp/kanko/spot/?a=22,34.06499997,132.9936089
糸山サイクリングターミナル　(サンライズ糸山),サイクリング,観光情報,今治市砂場町2丁目8番1号,https://www.sunrise-itoyama.jp/,34.11022514,132.9775218
今治市営スポーツパーク,スポーツ施設,スポーツ・レクリエーション,今治市高橋ふれあいの丘1番地2,https://www.city.imabari.ehime.jp/sports/shisetsu/sportspark/,34.04248004,132.9584006
今治市営上浦多々羅スポーツ公園運動場,スポーツ施設,スポーツ・レクリエーション,今治市上浦町井口7074番地の20,https://www.city.imabari.ehime.jp/sports/shisetsu/tatara/,34.26075241,133.0476413
今治市営中央体育館,スポーツ施設,スポーツ・レクリエーション,今治市別宮町6丁目2番2号,https://www.city.imabari.ehime.jp/sports/shisetsu/taiikukan/,34.07215656,132.992924
今治市営伯方体育センター,スポーツ施設,スポーツ・レクリエーション,今治市伯方町叶浦甲1668番地の29,https://www.city.imabari.ehime.jp/sports/shisetsu/hakata_center/,34.20322719,133.074526
今治市営大三島緑の村運動広場,スポーツ施設,スポーツ・レクリエーション,今治市大三島町口総1269番地,https://www.city.imabari.ehime.jp/sports/shisetsu/omishima_midori/,34.22143394,132.9658164
今治市営大西体育館,スポーツ施設,スポーツ・レクリエーション,今治市大西町新町甲797番地,https://www.city.imabari.ehime.jp/sports/shisetsu/onishi_taiikukan/,34.0643371,132.9251643
今治市営大西別府運動場,スポーツ施設,スポーツ・レクリエーション,今治市大西町別府2140番地4,https://www.city.imabari.ehime.jp/sports/shisetsu/onishi/befu.html,34.0672276,132.8999979
今治市営大西衣黒運動場,スポーツ施設,スポーツ・レクリエーション,今治市大西町大井浜199番地,https://www.city.imabari.ehime.jp/sports/shisetsu/onishi/iguro.html,34.05812008,132.9232042
今治市営朝倉緑のふるさと公園運動場,スポーツ施設,スポーツ・レクリエーション,今治市朝倉下乙258番地1,https://www.city.imabari.ehime.jp/sports/shisetsu/asakura/,33.99922943,133.0067436
今治市営桜井スポーツランド,スポーツ施設,スポーツ・レクリエーション,今治市桜井甲1054番地3,https://www.city.imabari.ehime.jp/sports/shisetsu/sakurai/,34.00977486,133.0486189
今治市営桜井海浜ふれあい広場サッカー場,スポーツ施設,スポーツ・レクリエーション,今治市桜井甲1130番地2,https://www.city.imabari.ehime.jp/sports/shisetsu/sakurai_soccer/,34.00535618,133.0513577
今治市営波方公園運動場,スポーツ施設,スポーツ・レクリエーション,今治市波方町樋口乙730番地,https://www.city.imabari.ehime.jp/sports/shisetsu/tamagawa_sogo/,34.1037529,132.9491301
今治市営玉川総合公園運動場,スポーツ施設,スポーツ・レクリエーション,今治市玉川町摺木甲108番地,https://www.city.imabari.ehime.jp/sports/shisetsu/tamagawa_sogo/,34.0223742,132.9350456
今治市営玉川艇庫,スポーツ施設,スポーツ・レクリエーション,今治市玉川町龍岡下乙17番地1,https://www.city.imabari.ehime.jp/sports/shisetsu/tamagawa_teiko/,33.99243027,132.9148792
今治市営球場,スポーツ施設,スポーツ・レクリエーション,今治市大新田町5丁目111番地7,https://www.city.imabari.ehime.jp/sports/shisetsu/oshinden/,34.07914457,132.9911794
今治市営菊間コミュニティホール,スポーツ施設,スポーツ・レクリエーション,今治市菊間町浜812番地,https://www.city.imabari.ehime.jp/sports/shisetsu/kikuma_commu/,34.03389843,132.8411908
今治市営菊間緑の広場公園運動場,スポーツ施設,スポーツ・レクリエーション,今治市菊間町池原1463番地2,https://www.city.imabari.ehime.jp/sports/shisetsu/kikuma_midori/,34.03109925,132.8620685
今治市宮窪石文化運動公園,スポーツ施設,スポーツ・レクリエーション,今治市宮窪町宮窪3546番地,https://www.city.imabari.ehime.jp/sports/shisetsu/ishibunka/,34.15934378,133.0705141
上浦多々羅しまなみドーム,プール,スポーツ・レクリエーション,今治市上浦町井口7074番地の20,https://www.city.imabari.ehime.jp/sports/shisetsu/yoshiumi_bg/,34.26158773,133.0469374
今治市吉海Ｂ＆Ｇ海洋センター,プール,スポーツ・レクリエーション,今治市吉海町福田1290番地,https://www.city.imabari.ehime.jp/sports/shisetsu/yoshiumi_bg/,34.1550478,133.0416199
今治市営富田海浜プール,プール,スポーツ・レクリエーション,今治市喜田村五丁目1073番地4地先,https://www.city.imabari.ehime.jp/sports/shisetsu/pool/,34.04673878,133.0282615
今治市営御厩プール,プール,スポーツ・レクリエーション,今治市東門町3丁目2番地2,https://www.city.imabari.ehime.jp/sports/shisetsu/pool/,34.0613083,133.0125695
今治市営波方公園運動場プール,プール,スポーツ・レクリエーション,今治市波方町樋口乙730番地,https://www.city.imabari.ehime.jp/sports/shisetsu/pool/,34.10460435,132.9496701
今治市営鹿ノ子プール,プール,スポーツ・レクリエーション,今治市町谷甲443番地1,https://www.city.imabari.ehime.jp/sports/shisetsu/pool/,34.02104279,132.9996142
今治市多目的温泉保養館(クアハウス今治),プール,スポーツ・レクリエーション,今治市湯ノ浦36番地,http://www.k-ispa.server-shared.com/,33.99413116,133.053402
今治市朝倉Ｂ＆Ｇ海洋センター,プール,スポーツ・レクリエーション,今治市朝倉下乙104番地の2,https://www.city.imabari.ehime.jp/sports/shisetsu/asakura_bg/,34.00081185,133.0070135
今治市民活動センター(今治市ボランティアサロン),ボランティアサロン,公共施設,今治市別宮町8丁目1番55号,https://imanpo.org/center/,34.07324311,132.9906661
今治市下水浄化センター,下水道処理施設,公共施設,今治市天保山町４丁目6番地2,https://www.city.imabari.ehime.jp/gesuik/,34.06342253,133.0174525
北部浄化センター,下水道処理施設,公共施設,今治市内堀１丁目185番地15,https://www.city.imabari.ehime.jp/gesuik/,34.10366387,132.9687294
大西水処理センター,下水道処理施設,公共施設,今治市大西町大井浜202番地1,https://www.city.imabari.ehime.jp/gesuik/,34.0659012,132.9188782
今治市立伯方中学校,中学校,公共施設,今治市伯方町木浦甲4134番地1,https://www.city.imabari.ehime.jp/gakukyou/s-ichiran.html#01,34.21242557,133.1067235
今治市立北郷中学校,中学校,公共施設,今治市中堀4丁目1番1号,https://www.city.imabari.ehime.jp/gakukyou/s-ichiran.html#01,34.10101958,132.9583414
今治市立南中学校,中学校,公共施設,今治市松木349番地1,https://www.city.imabari.ehime.jp/gakukyou/s-ichiran.html#01,34.03146363,133.0007905
今治市立大三島中学校,中学校,公共施設,今治市上浦町井口5610番地,https://www.city.imabari.ehime.jp/gakukyou/s-ichiran.html#01,34.26480177,133.0365749
今治市立大島中学校,中学校,公共施設,今治市吉海町幸新田250番地,https://www.city.imabari.ehime.jp/gakukyou/s-ichiran.html#01,34.14336175,133.0403378
今治市立大西中学校,中学校,公共施設,今治市大西町九王甲2280番地の1,https://www.city.imabari.ehime.jp/gakukyou/s-ichiran.html#01,34.06597432,132.9265765
今治市立日吉中学校,中学校,公共施設,今治市中日吉町1丁目3番70号,https://www.city.imabari.ehime.jp/gakukyou/s-ichiran.html#01,34.06127751,132.9926829
今治市立朝倉中学校,中学校,公共施設,今治市朝倉北甲273番地,https://www.city.imabari.ehime.jp/gakukyou/s-ichiran.html#01,33.99768927,133.0168913
今治市立桜井中学校,中学校,公共施設,今治市郷桜井1丁目8番8号,https://www.city.imabari.ehime.jp/gakukyou/s-ichiran.html#01,34.01648657,133.0341944
今治市立玉川中学校,中学校,公共施設,今治市玉川町高野甲21番地,https://www.city.imabari.ehime.jp/gakukyou/s-ichiran.html#01,34.01847453,132.9437166
今治市立立花中学校,中学校,公共施設,今治市立花町2丁目8番7号,https://www.city.imabari.ehime.jp/gakukyou/s-ichiran.html#01,34.05015364,132.9974629
今治市立菊間中学校,中学校,公共施設,今治市菊間町浜2628番地1,https://www.city.imabari.ehime.jp/gakukyou/s-ichiran.html#01,34.03190435,132.8525749
今治市立西中学校,中学校,公共施設,今治市山路554番地3,https://www.city.imabari.ehime.jp/gakukyou/s-ichiran.html#01,34.05782265,132.9766784
今治市立近見中学校,中学校,公共施設,今治市近見町4丁目2番57号,https://www.city.imabari.ehime.jp/gakukyou/s-ichiran.html#01,34.08639008,132.9816717
今治市関前中学校,中学校,公共施設,今治市関前岡村甲415番地,https://www.city.imabari.ehime.jp/gakukyou/s-ichiran.html#01,34.18780307,132.8833636
今治市さざなみ園,保健・福祉施設,公共施設,今治市大三島町宮浦336番地,https://www.city.imabari.ehime.jp/syougaifukus/,34.24952502,133.0021815
今治市しまなみ交流プラザ,保健・福祉施設,公共施設,今治市伯方町木浦甲1200番地1,https://www.city.imabari.ehime.jp/jinken/rinpokan/,34.20523496,133.1126893
今治市ひよこ園,保健・福祉施設,公共施設,今治市石井町4丁目3番53号,https://www.city.imabari.ehime.jp/syougaifukus/,34.08531044,132.985321
今治市中央保健センター,保健・福祉施設,公共施設,今治市南宝来町1丁目6番地1,https://www.city.imabari.ehime.jp/kenkou/,34.06215444,132.9979182
今治市朝倉福祉センター,保健・福祉施設,公共施設,今治市朝倉下甲529番地,https://www.city.imabari.ehime.jp/jinken/rinpokan/,33.99959095,133.0167325
今治市玉川福祉センター,保健・福祉施設,公共施設,今治市玉川町大野甲86番地1,https://www.imabari-shakyo.jp/shisetsu/tamagawa/,34.02145568,132.9444749
今治市総合福祉センター,保健・福祉施設,公共施設,今治市南宝来町1丁目9番地8,https://www.imabari-shakyo.jp/shisetsu/ai-land/,34.06022469,132.9980143
今治市老人ふれあいの家,保健・福祉施設,公共施設,今治市町谷甲465番地1,https://www.city.imabari.ehime.jp/fukusis/,34.02177871,133.000508
今治市菊間グループリビング,保健・福祉施設,公共施設,今治市菊間町池原21番地,https://www.city.imabari.ehime.jp/fukusis/,34.02558847,132.8566074
今治市菊間町隣保館,保健・福祉施設,公共施設,今治市菊間町浜1362番地,https://www.city.imabari.ehime.jp/jinken/rinpokan/,34.04200223,132.8440588
今治市障がい者文化体育施設(サン・アビリティーズ今治),保健・福祉施設,公共施設,今治市喜田村2丁目1番10号,https://www.city.imabari.ehime.jp/syougaifukus/,34.04855384,133.0185055
今治市障害者地域活動支援センター,保健・福祉施設,公共施設,今治市天保山町2丁目2番地1,https://www.city.imabari.ehime.jp/syougaifukus/,34.06735129,133.0099873
今治市障害者福祉センター　のぞみ苑,保健・福祉施設,公共施設,今治市石井町4丁目669番地1,https://www.city.imabari.ehime.jp/syougaifukus/,34.08489128,132.9858789
今治育成園,保健・福祉施設,公共施設,今治市町谷甲746番地,https://www.city.imabari.ehime.jp/syougaifukus/,34.01088703,133.0067612
発達支援センター,保健・福祉施設,公共施設,今治市東門町5丁目840番地4の内,https://www.city.imabari.ehime.jp/neuvola/hs-center/,34.06141144,133.0172735
養護老人ホーム清流園,保健・福祉施設,公共施設,今治市朝倉北甲497番地,https://www.city.imabari.ehime.jp/fukusis/,33.99788139,133.0229866
しまなみアースランド（今治西部丘陵公園）,公園,スポーツ・レクリエーション,今治市高地町2丁目乙429番地1,https://s-earthland.com/,34.07327753,132.972159
今治交通公園,公園,スポーツ・レクリエーション,今治市古国分2丁目甲70番地,https://www.city.imabari.ehime.jp/kouen/kotu/,34.03441049,133.03153
今治市宮窪カレイ山展望公園,公園,スポーツ・レクリエーション,今治市宮窪町宮窪6355番地2,https://www.city.imabari.ehime.jp/kanko/spot/?a=186,34.18400002,133.0690233
今治市朝倉牛神古墳公園,公園,スポーツ・レクリエーション,今治市古谷甲1194番地1,https://www.city.imabari.ehime.jp/museum/asakura/event/oshirase.html?p=719,34.01305503,132.9972754
今治市海山城展望公園,公園,スポーツ・レクリエーション,今治市樋口乙747番地2,https://www.city.imabari.ehime.jp/kanko/spot/?a=159,34.10675964,132.9536779
今治市湯ノ浦パークゴルフ広場,公園,スポーツ・レクリエーション,今治市孫兵衛作甲478番地,https://www.city.imabari.ehime.jp/kouen/sakurai/,33.99868366,133.0551154
今治市鴨池海岸公園,公園,スポーツ・レクリエーション,今治市大西町九王甲1168番地,https://www.city.imabari.ehime.jp/kanko/spot/?a=169,34.08257839,132.9233704
大三島藤公園,公園,スポーツ・レクリエーション,今治市大三島町宮浦9100番地1,https://www.city.imabari.ehime.jp/kanko/spot/?a=230,34.25048486,133.0062914
大角海浜公園,公園,スポーツ・レクリエーション,今治市波方町波方乙893番地1,https://www.city.imabari.ehime.jp/kanko/spot/?a=160,34.14075948,132.9415856
安神山わくわくパーク,公園,スポーツ・レクリエーション,今治市大三島町宮浦3951番地1,https://www.city.imabari.ehime.jp/kanko/spot/?a=231,34.24593306,133.0054562
市制50年記念公園（市民の森・フラワーパーク）,公園,スポーツ・レクリエーション,今治市山路662番地1,https://www.city.imabari.ehime.jp/kouen/50th/,34.05324064,132.9753684
星の浦海浜公園,公園,スポーツ・レクリエーション,今治市大西町星浦甲23番地1,https://www.city.imabari.ehime.jp/kanko/spot/?a=165,34.06241654,132.910228
朝倉ダム湖畔・緑水公園,公園,スポーツ・レクリエーション,今治市朝倉上乙762番地2,https://www.city.imabari.ehime.jp/kanko/spot/?a=144,33.9565541,133.0073836
朝倉緑のふるさと公園,公園,スポーツ・レクリエーション,今治市朝倉下乙258番地1,https://www.city.imabari.ehime.jp/kanko/spot/?a=145,33.99920959,133.0064717
東村海岸公園,公園,スポーツ・レクリエーション,今治市東村2丁目甲607番地3地先,https://www.city.imabari.ehime.jp/kouen/higasimura/,34.04449496,133.0304045
桜井海浜ふれあい広場,公園,スポーツ・レクリエーション,今治市桜井甲1130番地2,https://www.city.imabari.ehime.jp/kanko/spot/?a=136,34.00605488,133.0521865
桜井総合公園,公園,スポーツ・レクリエーション,今治市湯ノ浦乙58番地1,https://www.city.imabari.ehime.jp/kouen/sakurai/,33.99760538,133.0538604
正月鼻古墳公園,公園,スポーツ・レクリエーション,今治市関前岡村乙1062番地1,https://www.city.imabari.ehime.jp/kanko/spot/?a=252,34.19653972,132.8731957
波方公園,公園,スポーツ・レクリエーション,今治市波方町樋口乙730番地,https://www.city.imabari.ehime.jp/kanko/spot/?a=158,34.10363044,132.9508761
波止浜公園,公園,スポーツ・レクリエーション,今治市波止浜3丁目754番地外,https://www.city.imabari.ehime.jp/kanko/spot/?a=104,34.10997091,132.9654165
玉川総合公園,公園,スポーツ・レクリエーション,今治市玉川町摺木甲108番地,https://www.city.imabari.ehime.jp/kanko/spot/?a=151,34.02186787,132.9361872
瓦のふるさと公園,公園,スポーツ・レクリエーション,今治市菊間町浜3067番地,https://www.city.imabari.ehime.jp/kanko/spot/?a=171,34.03167337,132.8413894
藤山健康文化公園,公園,スポーツ・レクリエーション,今治市大西町宮脇乙579番地1,https://www.city.imabari.ehime.jp/kanko/spot/?a=166,34.06081829,132.9300286
見近島自然公園,公園,スポーツ・レクリエーション,今治市宮窪町大字宮窪7688番地2,https://www.city.imabari.ehime.jp/kanko/spot/?a=187,34.19560566,133.0746304
開山公園,公園,スポーツ・レクリエーション,今治市伯方町伊方乙108番地71,https://www.city.imabari.ehime.jp/kanko/spot/?a=206,34.22910572,133.0648678
阿方貝塚史跡公園,公園,スポーツ・レクリエーション,今治市阿方甲1260番地1,https://www.city.imabari.ehime.jp/map/map/454-agatakaiduka.html,34.06315532,132.9726464
鹿ノ子池公園,公園,スポーツ・レクリエーション,今治市町谷乙13番地1,https://www.city.imabari.ehime.jp/kouen/kanoko/,34.01983744,132.9993507
今治市上浦開発総合センター,公民館,公共施設,今治市上浦町井口5931番地1,https://www.city.imabari.ehime.jp/sgakusyuu/kominkan/,34.26336744,133.0373576
今治市中央公民館,公民館,公共施設,今治市南宝来町1丁目6番地1,https://www.city.imabari.ehime.jp/sgakusyuu/kominkan/,34.06220691,132.9979164
今治市乃万公民館,公民館,公共施設,今治市延喜甲237番地5,https://www.city.imabari.ehime.jp/sgakusyuu/kominkan/,34.06495529,132.9588367
今治市今治公民館,公民館,公共施設,今治市北宝来町3丁目2番地9,https://www.city.imabari.ehime.jp/sgakusyuu/kominkan/,34.06687547,132.9933449
今治市伯方開発総合センター,公民館,公共施設,今治市伯方町叶浦甲1668番地30,https://www.city.imabari.ehime.jp/sgakusyuu/kominkan/,34.20280547,133.0745359
今治市別宮公民館,公民館,公共施設,今治市大正町4丁目2番地7,https://www.city.imabari.ehime.jp/sgakusyuu/kominkan/,34.07118961,132.9962827
今治市吉海学習交流館,公民館,公共施設,今治市吉海町八幡137番地,https://www.city.imabari.ehime.jp/sgakusyuu/kominkan/,34.14569142,133.0431038
今治市国分公民館,公民館,公共施設,今治市唐子台東3丁目23番地6,https://www.city.imabari.ehime.jp/sgakusyuu/kominkan/,34.02851723,133.0304665
今治市城東公民館,公民館,公共施設,今治市東門町4丁目1番6号,https://www.city.imabari.ehime.jp/sgakusyuu/kominkan/,34.06046975,133.0127582
今治市大三島公民館,公民館,公共施設,今治市大三島町宮浦5708番地,https://www.city.imabari.ehime.jp/sgakusyuu/kominkan/,34.24888173,132.9952091
今治市大西公民館,公民館,公共施設,今治市大西町宮脇甲506番地の1,https://www.city.imabari.ehime.jp/sgakusyuu/kominkan/,34.06046918,132.9249744
今治市宮窪公民館,公民館,公共施設,今治市宮窪町宮窪2669番地,https://www.city.imabari.ehime.jp/sgakusyuu/kominkan/,34.17302536,133.0760318
今治市富田公民館,公民館,公共施設,今治市上徳甲393番地3,https://www.city.imabari.ehime.jp/sgakusyuu/kominkan/,34.0331655,133.0123397
今治市常盤公民館,公民館,公共施設,今治市南日吉町2丁目2番9号,https://www.city.imabari.ehime.jp/sgakusyuu/kominkan/,34.0573505,132.993403
今治市日吉公民館,公民館,公共施設,今治市末広町4丁目6番地2,https://www.city.imabari.ehime.jp/sgakusyuu/kominkan/,34.05936888,133.0059543
今治市日高公民館,公民館,公共施設,今治市小泉4丁目11番28号,https://www.city.imabari.ehime.jp/sgakusyuu/kominkan/,34.04732132,132.9795792
今治市朝倉公民館,公民館,公共施設,今治市朝倉北甲393番地,https://www.city.imabari.ehime.jp/sgakusyuu/kominkan/,33.99598691,133.0223081
今治市桜井公民館,公民館,公共施設,今治市桜井3丁目6番8号,https://www.city.imabari.ehime.jp/sgakusyuu/kominkan/,34.01873452,133.0358803
今治市波方公民館,公民館,公共施設,今治市波方町樋口甲253番地,https://www.city.imabari.ehime.jp/sgakusyuu/kominkan/,34.09774781,132.9521645
今治市波止浜公民館,公民館,公共施設,今治市地堀1丁目3番47号,https://www.city.imabari.ehime.jp/sgakusyuu/kominkan/,34.1059383,132.9661047
今治市清水公民館,公民館,公共施設,今治市四村93番地2,https://www.city.imabari.ehime.jp/sgakusyuu/kominkan/,34.03371346,132.986444
今治市玉川公民館,公民館,公共施設,今治市玉川町三反地甲10番地1,https://www.city.imabari.ehime.jp/sgakusyuu/kominkan/,34.01947727,132.941581
今治市立花カルチャーセンター,公民館,公共施設,今治市郷六ヶ内町2丁目2番7号,https://www.city.imabari.ehime.jp/sgakusyuu/kominkan/,34.04575123,132.9979546
今治市美須賀コミュニティプラザ,公民館,公共施設,今治市室屋町1丁目2番地5,https://www.city.imabari.ehime.jp/sgakusyuu/kominkan/,34.06798331,133.0018688
今治市菊間公民館,公民館,公共施設,今治市菊間町浜840番地,https://www.city.imabari.ehime.jp/sgakusyuu/kominkan/,34.03395338,132.8420237
今治市近見公民館,公民館,公共施設,今治市湊町1丁目1番39号,https://www.city.imabari.ehime.jp/sgakusyuu/kominkan/,34.08604712,132.9895773
今治市関前開発総合センター,公民館,公共施設,今治市関前岡村甲2番地第5,https://www.city.imabari.ehime.jp/sgakusyuu/kominkan/,34.18433335,132.8859523
今治市鳥生公民館,公民館,公共施設,今治市土橋町1丁目8番42号,https://www.city.imabari.ehime.jp/sgakusyuu/kominkan/,34.04912518,133.0038991
今治市立中央図書館,図書館,文化施設,今治市常盤町5丁目203番地2,http://www.library.imabari.ehime.jp/,34.06169247,132.9944226
今治市立大三島図書館,図書館,文化施設,今治市大三島町宮浦5713番地,http://www.library.imabari.ehime.jp/,34.24864552,132.9950358
今治市立大西図書館,図書館,文化施設,今治市大西町宮脇甲506番地の1,http://www.library.imabari.ehime.jp/,34.06043269,132.9249795
今治市立波方図書館,図書館,文化施設,今治市波方町樋口甲72番地1,http://www.library.imabari.ehime.jp/,34.09794932,132.9529748
あばらこ墓地,墓地・斎場,公共施設,今治市菊間町浜1544番地,https://www.city.imabari.ehime.jp/kankyou/bochi/,34.04224073,132.8518848
ふじさき苑,墓地・斎場,公共施設,今治市吉海町仁江3217番地,https://www.city.imabari.ehime.jp/kankyou/bochi/kasoba.html,34.14656107,133.0475546
伯方斎場,墓地・斎場,公共施設,今治市伯方町木浦乙1003番地2,https://www.city.imabari.ehime.jp/kankyou/bochi/kasoba.html,34.203935,133.1069466
大下火葬場,墓地・斎場,公共施設,今治市関前大下甲779番地,https://www.city.imabari.ehime.jp/kankyou/bochi/kasoba.html,34.18490575,132.9261229
大翔苑,墓地・斎場,公共施設,今治市大三島町宮浦1609番地,https://www.city.imabari.ehime.jp/kankyou/bochi/kasoba.html,34.25689567,133.0176591
大谷墓園墓地,墓地・斎場,公共施設,今治市山方町1丁目甲1253番地,https://www.city.imabari.ehime.jp/kankyou/bochi/,34.0647424,132.9791775
大谷墓地,墓地・斎場,公共施設,今治市山方町1丁目甲1198番地3,https://www.city.imabari.ehime.jp/kankyou/bochi/,34.06377512,132.9842136
天王墓地,墓地・斎場,公共施設,今治市宮窪町宮窪2217番地外,https://www.city.imabari.ehime.jp/kankyou/bochi/,34.17016135,133.0776732
小大下火葬場,墓地・斎場,公共施設,今治市関前小大下乙1385番地,https://www.city.imabari.ehime.jp/kankyou/bochi/kasoba.html,34.18933575,132.8967501
岡墓地,墓地・斎場,公共施設,今治市朝倉下甲861番地,https://www.city.imabari.ehime.jp/kankyou/bochi/,33.99965721,133.0084456
岡村火葬場,墓地・斎場,公共施設,今治市関前岡村甲1013番地3,https://www.city.imabari.ehime.jp/kankyou/bochi/kasoba.html,34.18018142,132.8814457
新別所墓地,墓地・斎場,公共施設,今治市玉川町別所甲317番地の3,https://www.city.imabari.ehime.jp/kankyou/bochi/,34.02607672,132.9735684
新堂地墓地,墓地・斎場,公共施設,今治市高地町2丁目甲1846番地1,https://www.city.imabari.ehime.jp/kankyou/bochi/,34.07356796,132.9847182
朝日ヶ丘墓地,墓地・斎場,公共施設,今治市朝倉上甲2092番地1,https://www.city.imabari.ehime.jp/kankyou/bochi/,33.97950716,133.0200369
樋口墓地,墓地・斎場,公共施設,今治市波方町樋口乙372番地,https://www.city.imabari.ehime.jp/kankyou/bochi/,34.09527899,132.9409199
燧風苑,墓地・斎場,公共施設,今治市山方町1丁目乙45番地,https://www.city.imabari.ehime.jp/kankyou/bochi/kasoba.html,34.06556769,132.9802573
紺原墓地,墓地・斎場,公共施設,今治市大西町紺原 甲605番地1,https://www.city.imabari.ehime.jp/kankyou/bochi/,34.06313392,132.9379516
薬師墓地,墓地・斎場,公共施設,今治市宮窪町宮窪6122番地1,https://www.city.imabari.ehime.jp/kankyou/bochi/,34.1783913,133.0750344
上浦認定こども園,子育て支援施設,公共施設,今治市上浦町井口5931番地1,https://www.city.imabari.ehime.jp/hoiku/,34.26349276,133.0379316
乃万保育所,子育て支援施設,公共施設,今治市延喜甲365番地2,https://www.city.imabari.ehime.jp/hoiku/,34.06345131,132.9572158
九和保育所,子育て支援施設,公共施設,今治市玉川町大野甲86番地3,https://www.city.imabari.ehime.jp/hoiku/,34.02113964,132.9441086
亀岡保育所,子育て支援施設,公共施設,今治市菊間町佐方490番地,https://www.city.imabari.ehime.jp/hoiku/,34.05470138,132.8749523
亀岡児童館,子育て支援施設,公共施設,今治市菊間町佐方428番地,https://www.city.imabari.ehime.jp/kodomo/jidoukan/,34.05673805,132.8741137
伯方児童館,子育て支援施設,公共施設,今治市伯方町有津甲3番地1,https://www.city.imabari.ehime.jp/kodomo/jidoukan/,34.20269617,133.1036516
伯方認定こども園,子育て支援施設,公共施設,今治市伯方町木浦甲1200番地1,https://www.city.imabari.ehime.jp/hoiku/,34.20584588,133.1121508
吉海認定こども園,子育て支援施設,公共施設,今治市吉海町八幡56番地,https://www.city.imabari.ehime.jp/hoiku/,34.14693633,133.0451922
城東保育所,子育て支援施設,公共施設,今治市美須賀町4丁目1番48号,https://www.city.imabari.ehime.jp/hoiku/,34.05942194,133.0116062
大三島認定こども園,子育て支援施設,公共施設,今治市大三島町明日2493番地1,https://www.city.imabari.ehime.jp/hoiku/,34.25145539,132.9972359
宮窪認定こども園,子育て支援施設,公共施設,今治市宮窪町宮窪2901番地,https://www.city.imabari.ehime.jp/hoiku/,34.17110939,133.0751717
富田保育所,子育て支援施設,公共施設,今治市上徳乙287番地7,https://www.city.imabari.ehime.jp/hoiku/,34.03276534,133.0125156
常盤保育所,子育て支援施設,公共施設,今治市南日吉町2丁目2番8号,https://www.city.imabari.ehime.jp/hoiku/,34.05746263,132.9931332
日の出保育所,子育て支援施設,公共施設,今治市玉川町小鴨部甲230番地2,https://www.city.imabari.ehime.jp/hoiku/,34.0265412,132.9643976
日高保育所,子育て支援施設,公共施設,今治市別名549番地1,https://www.city.imabari.ehime.jp/hoiku/,34.04615131,132.9752303
朝倉児童館,子育て支援施設,公共施設,今治市朝倉下甲529番地,https://www.city.imabari.ehime.jp/kodomo/jidoukan/,33.99932473,133.0166696
本町児童館,子育て支援施設,公共施設,今治市本町5丁目2番24号,https://www.city.imabari.ehime.jp/kodomo/jidoukan/,34.07392467,132.9977513
枝堀児童館,子育て支援施設,公共施設,今治市枝堀町1丁目4番地1,https://www.city.imabari.ehime.jp/kodomo/jidoukan/,34.06221181,133.0092201
桜井保育所,子育て支援施設,公共施設,今治市登畑甲40番地,https://www.city.imabari.ehime.jp/hoiku/,34.02224267,133.0219678
樋口保育所,子育て支援施設,公共施設,今治市波方町養老甲1024番地,https://www.city.imabari.ehime.jp/hoiku/,34.10124027,132.9473661
樋口児童館,子育て支援施設,公共施設,今治市波方町樋口甲1755番地1,https://www.city.imabari.ehime.jp/kodomo/jidoukan/,34.10142207,132.9493632
菊間保育所,子育て支援施設,公共施設,今治市菊間町長坂1999番地,https://www.city.imabari.ehime.jp/hoiku/,34.03266336,132.8449585
菊間児童館,子育て支援施設,公共施設,今治市菊間町長坂2001番地,https://www.city.imabari.ehime.jp/kodomo/jidoukan/,34.03327834,132.8455675
鳥生保育所,子育て支援施設,公共施設,今治市北鳥生町3丁目1番15号,https://www.city.imabari.ehime.jp/hoiku/,34.05431556,133.0072291
大三島ふるさと憩の家,宿泊施設,観光情報,今治市大三島町宗方5208-1,https://www.ikoinoie.co.jp/,34.19482564,132.9534944
今治市みやくぼ石文化交流館,宿泊研修施設,スポーツ・レクリエーション,今治市宮窪町宮窪3543番地,https://www.city.imabari.ehime.jp/sports/shisetsu/syukuhaku_miyakubo/,34.16123465,133.0716647
今治市大三島少年自然の家,宿泊研修施設,スポーツ・レクリエーション,今治市大三島町肥海4762番地1,https://www.city.imabari.ehime.jp/sgakusyuu/kominkan/syukuhaku_omisima/,34.26857335,132.9829616
今治市朝倉ふれあい交流センター,宿泊研修施設,スポーツ・レクリエーション,今治市朝倉下乙104番地2,https://www.city.imabari.ehime.jp/sports/shisetsu/syukuhaku_asakura/,34.00036804,133.0063084
今治市滞在型農園施設　ラントゥレーベン大三島,宿泊研修施設,スポーツ・レクリエーション,今治市大三島町野々江2312番地1,https://www.city.imabari.ehime.jp/nourin/rant/,34.21813633,132.9872311
今治市移住体験施設　クルツラントゥレーベン大三島,宿泊研修施設,スポーツ・レクリエーション,今治市大三島町野々江666番地,https://www.city.imabari.ehime.jp/nourin/rant/kurz.html,34.21786627,132.9860819
今治市吹揚小学校,小学校,公共施設,今治市黄金町3丁目3番地,https://www.city.imabari.ehime.jp/gakukyou/s-ichiran.html#01,34.0622991,133.0049975
今治市岡村小学校,小学校,公共施設,今治市関前岡村甲415番地,https://www.city.imabari.ehime.jp/gakukyou/s-ichiran.html#01,34.18780307,132.8833636
今治市立上浦小学校,小学校,公共施設,今治市上浦町井口4497番地1,https://www.city.imabari.ehime.jp/gakukyou/s-ichiran.html#01,34.26317072,133.0321337
今治市立乃万小学校,小学校,公共施設,今治市延喜甲349番地,https://www.city.imabari.ehime.jp/gakukyou/s-ichiran.html#01,34.06415121,132.9576429
今治市立九和小学校,小学校,公共施設,今治市玉川町摺木甲71番地1,https://www.city.imabari.ehime.jp/gakukyou/s-ichiran.html#01,34.02127889,132.938521
今治市立亀岡小学校,小学校,公共施設,今治市菊間町種52番地,https://www.city.imabari.ehime.jp/gakukyou/s-ichiran.html#01,34.05490986,132.8733293
今治市立伯方小学校,小学校,公共施設,今治市伯方町木浦甲3599番地2,https://www.city.imabari.ehime.jp/gakukyou/s-ichiran.html#01,34.20490638,133.1114792
今治市立別宮小学校,小学校,公共施設,今治市別宮町5丁目1番地7,https://www.city.imabari.ehime.jp/gakukyou/s-ichiran.html#01,34.07114666,132.9921342
今治市立吉海小学校,小学校,公共施設,今治市吉海町八幡157番地,https://www.city.imabari.ehime.jp/gakukyou/s-ichiran.html#01,34.14444185,133.0409612
今治市立国分小学校,小学校,公共施設,今治市古国分2丁目7番1号,https://www.city.imabari.ehime.jp/gakukyou/s-ichiran.html#01,34.03299977,133.031394
今治市立大三島小学校,小学校,公共施設,今治市大三島町宮浦5145番地,https://www.city.imabari.ehime.jp/gakukyou/s-ichiran.html#01,34.24659581,133.0010951
今治市立大西小学校,小学校,公共施設,今治市大西町大井浜103番地,https://www.city.imabari.ehime.jp/gakukyou/s-ichiran.html#01,34.06384023,132.9229322
今治市立宮窪小学校,小学校,公共施設,今治市宮窪町宮窪4765番地,https://www.city.imabari.ehime.jp/gakukyou/s-ichiran.html#01,34.17214218,133.0724239
今治市立富田小学校,小学校,公共施設,今治市上徳甲394番地4,https://www.city.imabari.ehime.jp/gakukyou/s-ichiran.html#01,34.03390985,133.0135189
今治市立常盤小学校,小学校,公共施設,今治市中日吉町2丁目6番55号,https://www.city.imabari.ehime.jp/gakukyou/s-ichiran.html#01,34.05953749,132.9896514
今治市立日高小学校,小学校,公共施設,今治市別名446番地2,https://www.city.imabari.ehime.jp/gakukyou/s-ichiran.html#01,34.0456955,132.9763165
今治市立朝倉小学校,小学校,公共施設,今治市朝倉北甲281番地,https://www.city.imabari.ehime.jp/gakukyou/s-ichiran.html#01,33.99874081,133.0164525
今治市立桜井小学校,小学校,公共施設,今治市郷桜井1丁目8番26号,https://www.city.imabari.ehime.jp/gakukyou/s-ichiran.html#01,34.0171751,133.0334717
今治市立波方小学校,小学校,公共施設,今治市波方町養老甲803番地の1,https://www.city.imabari.ehime.jp/gakukyou/s-ichiran.html#01,34.10465192,132.9462924
今治市立波止浜小学校,小学校,公共施設,今治市地堀1丁目3番40号,https://www.city.imabari.ehime.jp/gakukyou/s-ichiran.html#01,34.10581624,132.9651551
今治市立清水小学校,小学校,公共施設,今治市五十嵐甲13番地3,https://www.city.imabari.ehime.jp/gakukyou/s-ichiran.html#01,34.03272434,132.9844471
今治市立立花小学校,小学校,公共施設,今治市立花町4丁目3番45号,https://www.city.imabari.ehime.jp/gakukyou/s-ichiran.html#01,34.04783737,133.0014359
今治市立菊間小学校,小学校,公共施設,今治市菊間町長坂2000番地1,https://www.city.imabari.ehime.jp/gakukyou/s-ichiran.html#01,34.03255645,132.8457577
今治市立近見小学校,小学校,公共施設,今治市近見町1丁目5番1号,https://www.city.imabari.ehime.jp/gakukyou/s-ichiran.html#01,34.08965791,132.9857478
今治市立鳥生小学校,小学校,公共施設,今治市南高下町3丁目3番71号,https://www.city.imabari.ehime.jp/gakukyou/s-ichiran.html#01,34.04883432,133.0133505
今治市立鴨部小学校,小学校,公共施設,今治市玉川町中村甲574番地1,https://www.city.imabari.ehime.jp/gakukyou/s-ichiran.html#01,34.02219041,132.95636
「SHIMANAMI」モニュメント,展望・ビュースポット,観光情報,今治市砂場町2丁目8番1号,https://www.city.imabari.ehime.jp/kanko/spot/?a=21,34.1099047,132.9781749
とびがらす園地,展望・ビュースポット,観光情報,今治市大西町九王甲1168番地,https://www.city.imabari.ehime.jp/kanko/spot/?a=169,34.0829711,132.9228838
カレイ山展望台,展望・ビュースポット,観光情報,今治市宮窪町宮窪6355番地2,https://www.city.imabari.ehime.jp/kanko/spot/?a=186,34.18412287,133.070401
サイクリストの聖地碑,展望・ビュースポット,観光情報,今治市上浦町井口9180-2,https://www.city.imabari.ehime.jp/kanko/cycling/,34.25540475,133.0546906
ナガタニ展望台,展望・ビュースポット,観光情報,今治市関前岡村乙27番地1,https://www.city.imabari.ehime.jp/kanko/spot/?a=253,34.17983077,132.8789954
今治市よしうみ亀老山展望公園,展望・ビュースポット,観光情報,今治市吉海町南浦487番地4,https://www.city.imabari.ehime.jp/kanko/spot/?a=182,34.11991379,133.0335687
今治市来島海峡展望館,展望・ビュースポット,観光情報,今治市小浦町2丁目5番2号,https://www.city.imabari.ehime.jp/kanko/spot/?a=95,34.1142366,132.97778
塔ノ峰公園,展望・ビュースポット,観光情報,今治市波方町西浦乙1078-1,https://www.city.imabari.ehime.jp/kanko/spot/?a=162,34.12502654,132.9442697
多々羅展望台,展望・ビュースポット,観光情報,今治市上浦町井口7505番地7,https://www.city.imabari.ehime.jp/kanko/spot/?a=216,34.25699997,133.0550558
大下島灯台,展望・ビュースポット,観光情報,今治市関前大下,https://www.city.imabari.ehime.jp/kanko/spot/?a=257,34.18890799,132.9180741
妙見山古墳,展望・ビュースポット,観光情報,今治市大西町宮脇乙579-1,https://www.city.imabari.ehime.jp/kanko/spot/?a=168,34.05874157,132.9307915
小島,展望・ビュースポット,観光情報,今治市来島,https://www.city.imabari.ehime.jp/kanko/spot/?a=101,34.12323753,132.9767614
岡村大橋,展望・ビュースポット,観光情報,今治市関前岡村,https://www.city.imabari.ehime.jp/kanko/spot/?a=258,34.19274736,132.8605841
来島,展望・ビュースポット,観光情報,今治市来島,https://www.city.imabari.ehime.jp/kanko/spot/?a=100,34.11809164,132.9694119
海山城展望公園,展望・ビュースポット,観光情報,今治市波方町樋口乙747-2,https://www.city.imabari.ehime.jp/kanko/spot/?a=159,34.10668209,132.953817
立石展望台,展望・ビュースポット,観光情報,今治市上浦町井口7987番地2,https://www.city.imabari.ehime.jp/kanko/spot/?a=215,34.24900004,133.0380447
船折瀬戸,展望・ビュースポット,観光情報,今治市伯方町有津,https://www.city.imabari.ehime.jp/kanko/spot/?a=197,34.19441542,133.0862917
芸予要塞跡,展望・ビュースポット,観光情報,今治市来島,https://www.city.imabari.ehime.jp/kanko/spot/?a=102,34.12645736,132.9813282
近見山園地,展望・ビュースポット,観光情報,今治市近見町5丁目乙466番地,https://www.city.imabari.ehime.jp/kanko/spot/?a=98,34.08590122,132.971844
開山展望台,展望・ビュースポット,観光情報,今治市伯方町伊方乙108番地71,https://www.city.imabari.ehime.jp/kanko/spot/?a=206,34.22880712,133.0652257
鼻栗瀬戸展望台,展望・ビュースポット,観光情報,今治市上浦町瀬戸4658番地1,https://www.city.imabari.ehime.jp/kanko/spot/?a=219,34.21604162,133.0519357
上浦ハイツ,市営住宅,公共施設,今治市上浦町井口7073番地13,https://www.city.imabari.ehime.jp/jutaku/,34.26021116,133.0449525
上浦井口,市営住宅,公共施設,今治市上浦町井口5560番地,https://www.city.imabari.ehime.jp/jutaku/,34.26417989,133.0350341
上浦井田浜,市営住宅,公共施設,今治市上浦町盛2258番地,https://www.city.imabari.ehime.jp/jutaku/,34.27319271,133.0373911
上浦古戸,市営住宅,公共施設,今治市上浦町井口5944番地,https://www.city.imabari.ehime.jp/jutaku/,34.26263286,133.0365285
上浦古池,市営住宅,公共施設,今治市上浦町盛2258番地,https://www.city.imabari.ehime.jp/jutaku/,34.29364045,133.0259231
上浦大新田,市営住宅,公共施設,今治市上浦町甘崎3873番地1,https://www.city.imabari.ehime.jp/jutaku/,34.23661432,133.0532078
上浦寿合南,市営住宅,公共施設,今治市上浦町盛3092番地1,https://www.city.imabari.ehime.jp/jutaku/,34.28831368,133.0314909
上浦瀬戸,市営住宅,公共施設,今治市上浦町瀬戸2633番地2,https://www.city.imabari.ehime.jp/jutaku/,34.2256779,133.0538247
上浦盛,市営住宅,公共施設,今治市上浦町盛3115番地1,https://www.city.imabari.ehime.jp/jutaku/,34.28842228,133.0318587
上浦神田,市営住宅,公共施設,今治市上浦町盛1252番地,https://www.city.imabari.ehime.jp/jutaku/,34.29384686,133.0217587
今治市吉海町定住促進住宅,市営住宅,公共施設,今治市吉海町臥間24番地,https://www.city.imabari.ehime.jp/jutaku/,34.13080261,133.0213915
今治市大三島町定住促進住宅,市営住宅,公共施設,今治市大三島町宮浦5303番地,https://www.city.imabari.ehime.jp/jutaku/,34.24531589,132.9968021
今治駅西第１再開発住宅,市営住宅,公共施設,今治市北日吉町1丁目9番39号,https://www.city.imabari.ehime.jp/jutaku/,34.06390804,132.9894455
今治駅西第２再開発住宅,市営住宅,公共施設,今治市北日吉町1丁目16番8号,https://www.city.imabari.ehime.jp/jutaku/,34.06569613,132.9917815
伯方三坂山,市営住宅,公共施設,今治市伯方町伊方甲1768番地,https://www.city.imabari.ehime.jp/jutaku/,34.21945215,133.0682598
伯方伊方,市営住宅,公共施設,今治市伯方町伊方甲179番地4,https://www.city.imabari.ehime.jp/jutaku/,34.22787285,133.076207
伯方古江,市営住宅,公共施設,今治市伯方町木浦甲3994番地1,https://www.city.imabari.ehime.jp/jutaku/,34.21275553,133.1117824
伯方吉田,市営住宅,公共施設,今治市伯方町北浦甲869番地2,https://www.city.imabari.ehime.jp/jutaku/,34.22667066,133.0963786
伯方小島団地特定住宅,市営住宅,公共施設,今治市伯方町北浦甲1333番地11,https://www.city.imabari.ehime.jp/jutaku/,34.23313666,133.1024651
伯方小田,市営住宅,公共施設,今治市伯方町北浦甲2824番地6,https://www.city.imabari.ehime.jp/jutaku/,34.23109009,133.0882091
伯方尾浦,市営住宅,公共施設,今治市伯方町木浦甲4652番地,https://www.city.imabari.ehime.jp/jutaku/,34.19814651,133.1053029
伯方峠ノ越,市営住宅,公共施設,今治市伯方町木浦甲557番地1,https://www.city.imabari.ehime.jp/jutaku/,34.20858339,133.1178184
伯方明神ケ崎団地特定住宅,市営住宅,公共施設,今治市伯方町有津甲1862番地,https://www.city.imabari.ehime.jp/jutaku/,34.19906856,133.087998
伯方梅,市営住宅,公共施設,今治市伯方町有津甲17番地,https://www.city.imabari.ehime.jp/jutaku/,34.20292836,133.1031044
伯方湊,市営住宅,公共施設,今治市伯方町木浦1726番地2,https://www.city.imabari.ehime.jp/jutaku/,34.20295408,133.1149376
伯方湊団地特定住宅,市営住宅,公共施設,今治市伯方町木浦1714番地,https://www.city.imabari.ehime.jp/jutaku/,34.20300329,133.115045
伯方瀬戸浜,市営住宅,公共施設,今治市伯方町木浦甲654番地3,https://www.city.imabari.ehime.jp/jutaku/,34.21127178,133.1186471
伯方薬師,市営住宅,公共施設,今治市伯方町木浦甲999番地1,https://www.city.imabari.ehime.jp/jutaku/,34.20963186,133.1156615
伯方薬師団地特定住宅,市営住宅,公共施設,今治市伯方町木浦甲999番地1,https://www.city.imabari.ehime.jp/jutaku/,34.20896763,133.114559
八町,市営住宅,公共施設,今治市八町西5丁目1番40号,https://www.city.imabari.ehime.jp/jutaku/,34.04239364,132.9927431
北鳥生,市営住宅,公共施設,今治市北鳥生町1丁目4番8号,https://www.city.imabari.ehime.jp/jutaku/,34.05584502,133.0103389
南日吉,市営住宅,公共施設,今治市南日吉町2丁目1番5号,https://www.city.imabari.ehime.jp/jutaku/,34.05812456,132.9935443
南鳥生,市営住宅,公共施設,今治市南鳥生町1丁目5番3号,https://www.city.imabari.ehime.jp/jutaku/,34.05538785,133.0121154
吉海下田水,市営住宅,公共施設,今治市吉海町名4694番地3,https://www.city.imabari.ehime.jp/jutaku/,34.12698951,133.0241501
吉海八幡中,市営住宅,公共施設,今治市吉海町八幡88番地,https://www.city.imabari.ehime.jp/jutaku/,34.14660524,133.0438226
吉海八幡南,市営住宅,公共施設,今治市吉海町八幡甲111番地,https://www.city.imabari.ehime.jp/jutaku/,34.14645748,133.0436552
吉海八幡岡,市営住宅,公共施設,今治市吉海町八幡478番地1,https://www.city.imabari.ehime.jp/jutaku/,34.14331624,133.0430709
吉海志津見,市営住宅,公共施設,今治市吉海町仁江2158番地,https://www.city.imabari.ehime.jp/jutaku/,34.13508746,133.0618052
吉海本庄,市営住宅,公共施設,今治市吉海町本庄1997番地,https://www.city.imabari.ehime.jp/jutaku/,34.14107048,133.0358383
吉海本庄中浜,市営住宅,公共施設,今治市吉海町本庄954番地3,https://www.city.imabari.ehime.jp/jutaku/,34.14779531,133.0333104
吉海椋名,市営住宅,公共施設,今治市吉海町椋名150番地,https://www.city.imabari.ehime.jp/jutaku/,34.14045544,133.0176264
吉海椋名中,市営住宅,公共施設,今治市吉海町椋名371番地,https://www.city.imabari.ehime.jp/jutaku/,34.13819094,133.0209925
吉海泊,市営住宅,公共施設,今治市吉海町泊498番地,https://www.city.imabari.ehime.jp/jutaku/,34.17311506,133.0319245
吉海瀬賀居,市営住宅,公共施設,今治市吉海町名3030番地,https://www.city.imabari.ehime.jp/jutaku/,34.13234427,133.0384977
吉海福田C,市営住宅,公共施設,今治市吉海町福田5番地1,https://www.city.imabari.ehime.jp/jutaku/,34.16170881,133.0388008
吉海福田仲,市営住宅,公共施設,今治市吉海町福田1364番地,https://www.city.imabari.ehime.jp/jutaku/,34.15461197,133.0448169
唐子台,市営住宅,公共施設,今治市唐子台西3丁目10番地1,https://www.city.imabari.ehime.jp/jutaku/,34.02973114,133.0253438
四村,市営住宅,公共施設,今治市四村14番地1,https://www.city.imabari.ehime.jp/jutaku/,34.03185263,132.9906892
地堀,市営住宅,公共施設,今治市地堀4丁目7番1号,https://www.city.imabari.ehime.jp/jutaku/,34.10538657,132.9625589
大三島上条,市営住宅,公共施設,今治市大三島町宮浦3267番地1,https://www.city.imabari.ehime.jp/jutaku/,34.24925861,133.0060609
大三島会所下,市営住宅,公共施設,今治市大三島町宮浦5660番地,https://www.city.imabari.ehime.jp/jutaku/,34.24868024,132.9968793
大三島台ダム住宅,市営住宅,公共施設,今治市大三島町宮浦5241番地1,https://www.city.imabari.ehime.jp/jutaku/,34.24479381,132.9966772
大三島宗方,市営住宅,公共施設,今治市大三島町宗方3620番地,https://www.city.imabari.ehime.jp/jutaku/,34.20191572,132.9519773
大三島宮浦,市営住宅,公共施設,今治市大三島町宮浦5611番地,https://www.city.imabari.ehime.jp/jutaku/,34.24868554,132.9993415
大三島旧法務局住宅,市営住宅,公共施設,今治市大三島町宮浦5703番地,https://www.city.imabari.ehime.jp/jutaku/,34.24861833,132.9964911
大三島浦戸,市営住宅,公共施設,今治市大三島町浦戸180番地1,https://www.city.imabari.ehime.jp/jutaku/,34.21850679,132.9638505
大三島砂塚,市営住宅,公共施設,今治市大三島町野々江431番地,https://www.city.imabari.ehime.jp/jutaku/,34.21964419,132.9866211
大三島肥海,市営住宅,公共施設,今治市大三島町肥海1167番地3,https://www.city.imabari.ehime.jp/jutaku/,34.27299095,132.9892842
大三島野々江,市営住宅,公共施設,今治市大三島町野々江2436番地10,https://www.city.imabari.ehime.jp/jutaku/,34.22089875,132.9904528
大新田,市営住宅,公共施設,今治市大新田町3丁目5番58号,https://www.city.imabari.ehime.jp/jutaku/,34.08053117,132.9937419
大西金光,市営住宅,公共施設,今治市大西町新町甲570番地,https://www.city.imabari.ehime.jp/jutaku/,34.06937164,132.9313918
大西鳥越,市営住宅,公共施設,今治市大西町新町甲1037,https://www.city.imabari.ehime.jp/jutaku/,34.06988374,132.9292705
宮窪,市営住宅,公共施設,今治市宮窪町宮窪1360番地1,https://www.city.imabari.ehime.jp/jutaku/,34.16887121,133.0858294
宮窪仲側,市営住宅,公共施設,今治市宮窪町余所国807番地1,https://www.city.imabari.ehime.jp/jutaku/,34.18707708,133.0619832
宮窪余所国,市営住宅,公共施設,今治市宮窪町余所国1782番地,https://www.city.imabari.ehime.jp/jutaku/,34.19122116,133.0566468
宮窪余所国第２,市営住宅,公共施設,今治市宮窪町余所国1383番地,https://www.city.imabari.ehime.jp/jutaku/,34.19181991,133.0571239
小泉,市営住宅,公共施設,今治市小泉4丁目3番1号,https://www.city.imabari.ehime.jp/jutaku/,34.04832191,132.9820329
朝倉上,市営住宅,公共施設,今治市朝倉上甲2442番地101,https://www.city.imabari.ehime.jp/jutaku/,33.97445221,133.0212249
朝倉上第２,市営住宅,公共施設,今治市朝倉上甲798番地20,https://www.city.imabari.ehime.jp/jutaku/,33.976911,133.0072474
朝倉上第３,市営住宅,公共施設,今治市朝倉上甲2092番地22,https://www.city.imabari.ehime.jp/jutaku/,33.97960089,133.0200503
朝倉下,市営住宅,公共施設,今治市朝倉下甲1081番地6,https://www.city.imabari.ehime.jp/jutaku/,34.00654747,133.0110231
朝倉下第２,市営住宅,公共施設,今治市朝倉下甲1415番地1,https://www.city.imabari.ehime.jp/jutaku/,34.00925227,133.012811
朝倉北,市営住宅,公共施設,今治市朝倉北甲381番地4,https://www.city.imabari.ehime.jp/jutaku/,33.99525395,133.0223448
朝倉南,市営住宅,公共施設,今治市朝倉南乙205番地3,https://www.city.imabari.ehime.jp/jutaku/,33.9940166,133.0292756
朝倉南第２,市営住宅,公共施設,今治市朝倉南甲221番地3,https://www.city.imabari.ehime.jp/jutaku/,33.99247115,133.0213749
朝倉立丁特定住宅,市営住宅,公共施設,今治市朝倉北甲293番地5,https://www.city.imabari.ehime.jp/jutaku/,33.99794458,133.0178275
本町,市営住宅,公共施設,今治市本町7丁目2番12号,https://www.city.imabari.ehime.jp/jutaku/,34.07712175,132.9945021
東門,市営住宅,公共施設,今治市東門町6丁目2番19号,https://www.city.imabari.ehime.jp/jutaku/,34.06002729,133.0159424
東鳥生,市営住宅,公共施設,今治市東鳥生町1丁目2番22号,https://www.city.imabari.ehime.jp/jutaku/,34.05836074,133.0180208
松木,市営住宅,公共施設,今治市松木6番地2,https://www.city.imabari.ehime.jp/jutaku/,34.0322401,133.0064885
桜井団地第１,市営住宅,公共施設,今治市桜井団地5丁目1番地1,https://www.city.imabari.ehime.jp/jutaku/,34.02484051,133.0142257
桜井団地第２,市営住宅,公共施設,今治市桜井団地1丁目2番地2,https://www.city.imabari.ehime.jp/jutaku/,34.0282538,133.016808
桜井浜第１,市営住宅,公共施設,今治市桜井1丁目5番4号,https://www.city.imabari.ehime.jp/jutaku/,34.02492863,133.0403637
桜井浜第１団地引揚者住宅,市営住宅,公共施設,今治市桜井1丁目5番4号,https://www.city.imabari.ehime.jp/jutaku/,34.02492863,133.0403637
桜井浜第２,市営住宅,公共施設,今治市桜井4丁目6番16号,https://www.city.imabari.ehime.jp/jutaku/,34.01732364,133.0403564
泉川,市営住宅,公共施設,今治市泉川町1丁目2番58号,https://www.city.imabari.ehime.jp/jutaku/,34.05735134,132.9962836
波方宮脇,市営住宅,公共施設,今治市波方町樋口甲1930番地24,https://www.city.imabari.ehime.jp/jutaku/,34.10312024,132.9530205
波方小部,市営住宅,公共施設,今治市波方町小部甲489番地1,https://www.city.imabari.ehime.jp/jutaku/,34.10409217,132.9307987
波方岡北,市営住宅,公共施設,今治市波方町岡甲337番地9,https://www.city.imabari.ehime.jp/jutaku/,34.11114043,132.925801
波方平松,市営住宅,公共施設,今治市波方町養老乙74番地11,https://www.city.imabari.ehime.jp/jutaku/,34.10144128,132.9462743
波方平石,市営住宅,公共施設,今治市波方町樋口甲1639番地,https://www.city.imabari.ehime.jp/jutaku/,34.10130076,132.9540586
波方海山,市営住宅,公共施設,今治市波方町波方乙510番地5,https://www.city.imabari.ehime.jp/jutaku/,34.11189764,132.9555488
波方西浦,市営住宅,公共施設,今治市波方町西浦甲3224番地1,https://www.city.imabari.ehime.jp/jutaku/,34.12914956,132.9393453
波方郷,市営住宅,公共施設,今治市波方町郷乙415番地49,https://www.city.imabari.ehime.jp/jutaku/,34.11037325,132.9603139
波方郷１,市営住宅,公共施設,今治市波方町郷甲1325番地1,https://www.city.imabari.ehime.jp/jutaku/,34.10999228,132.9602406
波方郷２,市営住宅,公共施設,今治市波方町郷甲1325番地1,https://www.city.imabari.ehime.jp/jutaku/,34.10975661,132.9600368
玉川ウワナル,市営住宅,公共施設,今治市玉川町三反地甲121番地1,https://www.city.imabari.ehime.jp/jutaku/,34.01558105,132.9384268
玉川ウワナル第２,市営住宅,公共施設,今治市玉川町三反地甲145番地2,https://www.city.imabari.ehime.jp/jutaku/,34.01587749,132.9383257
玉川三反地,市営住宅,公共施設,今治市玉川町三反地甲217番地59,https://www.city.imabari.ehime.jp/jutaku/,34.01855272,132.9374767
玉川三反地ハサマ,市営住宅,公共施設,今治市玉川町三反地甲217番地21,https://www.city.imabari.ehime.jp/jutaku/,34.01925493,132.9395782
玉川中村,市営住宅,公共施設,今治市玉川町中村甲297番地1,https://www.city.imabari.ehime.jp/jutaku/,34.02057016,132.950886
玉川大野,市営住宅,公共施設,今治市玉川町大野甲36番地2,https://www.city.imabari.ehime.jp/jutaku/,34.02392064,132.9448481
玉川山崎,市営住宅,公共施設,今治市玉川町摺木甲10番地3,https://www.city.imabari.ehime.jp/jutaku/,34.01968691,132.9382983
玉川川原,市営住宅,公共施設,今治市玉川町摺木甲37番地1,https://www.city.imabari.ehime.jp/jutaku/,34.02001567,132.9389386
玉川摺木,市営住宅,公共施設,今治市玉川町摺木甲63番地,https://www.city.imabari.ehime.jp/jutaku/,34.02083348,132.9393276
玉川日之浦,市営住宅,公共施設,今治市玉川町鈍川丙71番地1,https://www.city.imabari.ehime.jp/jutaku/,33.98499578,132.9563861
玉川法界寺,市営住宅,公共施設,今治市玉川町法界寺乙13番地6,https://www.city.imabari.ehime.jp/jutaku/,34.02931477,132.9599378
玉川竹ノハナ,市営住宅,公共施設,今治市玉川町龍岡上甲10番地1,https://www.city.imabari.ehime.jp/jutaku/,33.99201028,132.9135115
玉川竹ノハナ第２,市営住宅,公共施設,今治市玉川町龍岡上甲8番地1,https://www.city.imabari.ehime.jp/jutaku/,33.992008,132.9136374
町谷,市営住宅,公共施設,今治市町谷甲378番地,https://www.city.imabari.ehime.jp/jutaku/,34.02248003,133.0008981
石井,市営住宅,公共施設,今治市石井町2丁目7番54号,https://www.city.imabari.ehime.jp/jutaku/,34.08166988,132.9887967
美須賀コーポ,市営住宅,公共施設,今治市室屋町1丁目2番5,https://www.city.imabari.ehime.jp/jutaku/,34.0680071,133.0018663
菊間北浜２,市営住宅,公共施設,今治市菊間町浜1310番地,https://www.city.imabari.ehime.jp/jutaku/,34.04142105,132.843093
菊間北浜５,市営住宅,公共施設,今治市菊間町浜1272番地,https://www.city.imabari.ehime.jp/jutaku/,34.03961555,132.8428286
菊間北浜６,市営住宅,公共施設,今治市菊間町浜1272番地,https://www.city.imabari.ehime.jp/jutaku/,34.03959049,132.8428297
菊間北浜７,市営住宅,公共施設,今治市菊間町浜1303番地,https://www.city.imabari.ehime.jp/jutaku/,34.04145768,132.8435194
菊間城ノ上,市営住宅,公共施設,今治市菊間町種198番地1,https://www.city.imabari.ehime.jp/jutaku/,34.05014796,132.8720845
菊間太宮,市営住宅,公共施設,今治市菊間町浜1366番地1,https://www.city.imabari.ehime.jp/jutaku/,34.04267272,132.8462204
菊間恵比須,市営住宅,公共施設,今治市菊間町種4436番地,https://www.city.imabari.ehime.jp/jutaku/,34.04663269,132.8620423
菊間日之出,市営住宅,公共施設,今治市菊間町浜1239番地1,https://www.city.imabari.ehime.jp/jutaku/,34.04110164,132.846821
菊間日之出３,市営住宅,公共施設,今治市菊間町浜1245番地,https://www.city.imabari.ehime.jp/jutaku/,34.04104686,132.8460978
菊間葉山,市営住宅,公共施設,今治市菊間町池原3158番地,https://www.city.imabari.ehime.jp/jutaku/,34.04369012,132.8587754
菊間西町,市営住宅,公共施設,今治市菊間町浜189番地,https://www.city.imabari.ehime.jp/jutaku/,34.03538101,132.8385201
菊間近代１,市営住宅,公共施設,今治市菊間町長坂1205番地,https://www.city.imabari.ehime.jp/jutaku/,34.02934736,132.8394423
菊間近代２,市営住宅,公共施設,今治市菊間町長坂1205番地,https://www.city.imabari.ehime.jp/jutaku/,34.02982987,132.8391191
菊間霜ノ下,市営住宅,公共施設,今治市菊間町佐方1030番地,https://www.city.imabari.ehime.jp/jutaku/,34.05393479,132.878196
近見,市営住宅,公共施設,今治市近見町2丁目4番17号,https://www.city.imabari.ehime.jp/jutaku/,34.08664151,132.9850531
郷本町,市営住宅,公共施設,今治市郷本町1丁目3番36号,https://www.city.imabari.ehime.jp/jutaku/,34.04755992,132.9965627
関前城ノ谷,市営住宅,公共施設,今治市関前岡村甲2627番地4,https://www.city.imabari.ehime.jp/jutaku/,34.1844276,132.887383
関前城ノ谷引揚者住宅,市営住宅,公共施設,今治市関前岡村甲2627番地4,https://www.city.imabari.ehime.jp/jutaku/,34.18462057,132.8874442
関前大下,市営住宅,公共施設,今治市関前大下甲1930番地32,https://www.city.imabari.ehime.jp/jutaku/,34.18994335,132.9225185
関前小大下引揚者住宅,市営住宅,公共施設,今治市関前小大下乙1352番地5,https://www.city.imabari.ehime.jp/jutaku/,34.19033366,132.9004923
関前岡引揚者住宅,市営住宅,公共施設,今治市関前岡村甲424番地2,https://www.city.imabari.ehime.jp/jutaku/,34.18812567,132.8831342
関前白潟特定公共賃貸住宅,市営住宅,公共施設,今治市関前岡村甲1506番地,https://www.city.imabari.ehime.jp/jutaku/,34.1862905,132.8714947
阿方第１,市営住宅,公共施設,今治市阿方甲163番地1,https://www.city.imabari.ehime.jp/jutaku/,34.0627456,132.9722173
阿方第２,市営住宅,公共施設,今治市阿方甲525番地1,https://www.city.imabari.ehime.jp/jutaku/,34.06297672,132.9630669
高部,市営住宅,公共施設,今治市高部甲1628番地,https://www.city.imabari.ehime.jp/jutaku/,34.09792629,132.9574581
鯉池東,市営住宅,公共施設,今治市鯉池町2丁目1番37号,https://www.city.imabari.ehime.jp/jutaku/,34.05292256,132.9892625
鯉池西,市営住宅,公共施設,今治市鯉池町1丁目3番16号,https://www.city.imabari.ehime.jp/jutaku/,34.05186746,132.9872377
黄金,市営住宅,公共施設,今治市黄金町4丁目5番地4,https://www.city.imabari.ehime.jp/jutaku/,34.06033704,133.0077799
今治市南宝来駐車場,市営駐車場・駐輪場,公共施設,今治市南宝来町1丁目6番地1,https://www.city.imabari.ehime.jp/soumuk/parking/minamihourai.html,34.06198653,132.9994339
今治市風早駐車場,市営駐車場・駐輪場,公共施設,今治市風早町1丁目2番地5,https://www.city.imabari.ehime.jp/youchikanri/map.html,34.06911698,133.0034964
今治市駅前広場駐車場,市営駐車場・駐輪場,公共施設,今治市北宝来町1丁目100番地,https://www.city.imabari.ehime.jp/youchikanri/map.html,34.06432001,132.9944247
今治港沖洲駐車場,市営駐車場・駐輪場,公共施設,今治市片原町1丁目3番地1,https://www.city.imabari.ehime.jp/kanko/access/parking.html,34.06913457,133.0055103
今治駅北高架下自転車駐車場,市営駐車場・駐輪場,公共施設,今治市北宝来町2丁目甲774番地2,https://www.city.imabari.ehime.jp/cyclecity/jitensha_parking/,34.06515891,132.9927747
今治駅南高架下自転車駐車場,市営駐車場・駐輪場,公共施設,今治市北宝来町1丁目甲726番地2,https://www.city.imabari.ehime.jp/cyclecity/jitensha_parking/,34.06328418,132.9945376
今治駅東第１駐車場,市営駐車場・駐輪場,公共施設,今治市北宝来町1丁目729番地18,https://www.city.imabari.ehime.jp/youchikanri/map.html,34.06387085,132.9943414
上浦支所,市役所・支所,公共施設,今治市上浦町井口6605,https://www.city.imabari.ehime.jp/sisho/,34.26346511,133.0402163
今治市役所,市役所・支所,公共施設,今治市別宮町1丁目4番地1,https://www.city.imabari.ehime.jp/,34.06617211,132.9977996
伯方支所,市役所・支所,公共施設,今治市伯方町木浦甲1235,https://www.city.imabari.ehime.jp/sisho/,34.20300003,133.07464
吉海支所,市役所・支所,公共施設,今治市吉海町八幡137,https://www.city.imabari.ehime.jp/sisho/,34.14533799,133.0430048
大三島支所,市役所・支所,公共施設,今治市大三島町宮浦5708,https://www.city.imabari.ehime.jp/sisho/,34.24906325,132.995832
大下地区住民センター,市役所・支所,公共施設,今治市関前大下甲65番地1,https://www.city.imabari.ehime.jp/siminsankaku/siminseikatu/004.html,34.18846776,132.9229438
大西支所,市役所・支所,公共施設,今治市大西町宮脇甲506-1,https://www.city.imabari.ehime.jp/sisho/,34.0602713,132.9253641
宮窪支所,市役所・支所,公共施設,今治市宮窪町宮窪2668,https://www.city.imabari.ehime.jp/sisho/,34.17294103,133.0757094
小大下地区住民センター,市役所・支所,公共施設,今治市関前小大下乙1352番地第2,https://www.city.imabari.ehime.jp/siminsankaku/siminseikatu/004.html,34.19035968,132.9002463
朝倉支所,市役所・支所,公共施設,今治市朝倉北甲397番地1,https://www.city.imabari.ehime.jp/sisho/,33.99604189,133.021934
波方支所,市役所・支所,公共施設,今治市波方町樋口甲250,https://www.city.imabari.ehime.jp/sisho/,34.09756652,132.9518049
玉川支所,市役所・支所,公共施設,今治市玉川町三反地甲10番地1,https://www.city.imabari.ehime.jp/sisho/,34.0191687,132.9417114
菊間支所,市役所・支所,公共施設,今治市菊間町浜840,https://www.city.imabari.ehime.jp/sisho/,34.0340757,132.8421363
関前支所,市役所・支所,公共施設,今治市関前岡村甲732,https://www.city.imabari.ehime.jp/sisho/,34.18397351,132.8827135
今治市公会堂,文化ホール等,公共施設,今治市別宮町1丁目4番地1,https://www.city.imabari.ehime.jp/soumuk/kokaido/,34.06666454,132.9978156
今治市民会館,文化ホール等,公共施設,今治市別宮町1丁目4番地1,https://www.city.imabari.ehime.jp/soumuk/siminkaikan/,34.06614149,132.9983587
今治市中央消防署,消防署,公共施設,今治市南宝来町2丁目1番地1,https://www.city.imabari.ehime.jp/shoubou/shobousho/,34.06104368,133.0008187
今治市中央消防署東分署,消防署,公共施設,今治市旦264番地1,https://www.city.imabari.ehime.jp/shoubou/shobousho/,34.01878087,133.0251593
今治市北消防署,消防署,公共施設,今治市伯方町叶浦甲1667番地4,https://www.city.imabari.ehime.jp/shoubou/shobousho/,34.20435008,133.0741269
今治市北消防署大三島分署,消防署,公共施設,今治市上浦町井口5286番地,https://www.city.imabari.ehime.jp/shoubou/shobousho/,34.26863949,133.0405271
今治市北消防署大島分署,消防署,公共施設,今治市宮窪町宮窪4764番地5,https://www.city.imabari.ehime.jp/shoubou/shobousho/,34.17127283,133.0717165
今治市西消防署,消防署,公共施設,今治市クリエイティブヒルズ3番地,https://www.city.imabari.ehime.jp/shoubou/shobousho/,34.04798796,132.9653112
今治市西消防署波方分署,消防署,公共施設,今治市波方町樋口甲1551番地1,https://www.city.imabari.ehime.jp/shoubou/shobousho/,34.09799118,132.9476407
今治市西消防署菊間分署,消防署,公共施設,今治市菊間町浜1500番地17,https://www.city.imabari.ehime.jp/shoubou/shobousho/,34.04422571,132.8500625
今治市多目的温泉保養館(クアハウス今治),温泉保養施設,観光情報,今治市湯ノ浦36番地,http://www.k-ispa.server-shared.com/,33.99413116,133.053402
今治市大三島海洋温浴館及び農村交流館　(マーレ・グラッシア大三島),温泉保養施設,観光情報,今治市大三島町宮浦5902番地,https://www.city.imabari.ehime.jp/kanko/spot/?a=227,34.24167769,132.9938917
今治市鈍川せせらぎ交流館,温泉保養施設,観光情報,今治市玉川町鈍川甲218番地1,https://seseragi-onsen.com/,33.98477484,132.9403678
なみかた海の交流センター,産業振興施設,公共施設,今治市波方町波方2264番地38,https://www.city.imabari.ehime.jp/sangyou/namikata/,34.1213636,132.9566267
今治市産業振興センター,産業振興施設,公共施設,今治市菊間町種147番地2,https://www.city.imabari.ehime.jp/map/map/789-kikusan.html,34.05275693,132.8720545
旧今治コンピュータカレッジ,産業振興施設,公共施設,今治市東門町5丁目840番4,https://www.city.imabari.ehime.jp/sangyou/c_collage/,34.06153749,133.017
仙遊寺（四国霊場58番札所）,神社仏閣,観光情報,今治市玉川町別所甲483,https://www.city.imabari.ehime.jp/kanko/spot/?a=157,34.01347907,132.9773577
加茂神社,神社仏閣,観光情報,今治市菊間町浜1989,https://www.city.imabari.ehime.jp/kanko/spot/?a=174,34.03572675,132.8529011
南光坊（四国霊場55番札所）,神社仏閣,観光情報,今治市別宮町3丁目1,https://www.city.imabari.ehime.jp/kanko/spot/?a=111,34.06824001,132.9953322
喜多浦八幡神社,神社仏閣,観光情報,今治市伯方町北浦甲1463,https://www.city.imabari.ehime.jp/kanko/spot/?a=207,34.22885043,133.0936816
国分寺（四国霊場59番札所）,神社仏閣,観光情報,今治市国分4丁目1-33,https://www.city.imabari.ehime.jp/kanko/spot/?a=130,34.02614973,133.0254001
大山祇神社,神社仏閣,観光情報,今治市大三島町宮浦3327,https://www.city.imabari.ehime.jp/kanko/spot/?a=226,34.24790064,133.0058321
姫子島神社,神社仏閣,観光情報,今治市関前岡村,https://www.city.imabari.ehime.jp/kanko/spot/?a=256,34.18240639,132.88214
延命寺（四国霊場54番札所）,神社仏閣,観光情報,今治市阿方甲636,https://www.city.imabari.ehime.jp/kanko/spot/?a=110,34.06679407,132.9640148
救世観音堂,神社仏閣,観光情報,今治市関前岡村,https://www.city.imabari.ehime.jp/kanko/spot/?a=254,34.17512259,132.8808755
栄福寺（四国霊場57番札所）,神社仏閣,観光情報,今治市玉川町八幡甲200,https://www.city.imabari.ehime.jp/kanko/spot/?a=156,34.0296919,132.9782701
泰山寺（四国霊場56番札所）,神社仏閣,観光情報,今治市小泉1丁目9-18,https://www.city.imabari.ehime.jp/kanko/spot/?a=112,34.05037958,132.974795
禅興寺,神社仏閣,観光情報,今治市伯方町木浦甲3645,https://www.city.imabari.ehime.jp/kanko/spot/?a=204,34.20472033,133.1091346
綱敷天満神社,神社仏閣,観光情報,今治市桜井6丁目2-1,https://www.city.imabari.ehime.jp/kanko/spot/?a=128,34.01964626,133.0424808
遍照院,神社仏閣,観光情報,今治市菊間町浜89,https://www.city.imabari.ehime.jp/kanko/spot/?a=173,34.03325962,132.8380623
高龍寺,神社仏閣,観光情報,今治市吉海町名2916-2,https://www.city.imabari.ehime.jp/kanko/spot/?a=183,34.12942513,133.0377401
かわら館,美術館・博物館,文化施設,今治市菊間町浜3067,https://www.city.imabari.ehime.jp/kanko/spot/?a=170,34.03237278,132.8409088
ところミュージアム大三島,美術館・博物館,文化施設,今治市大三島町浦戸2362番地3,https://www.city.imabari.ehime.jp/museum/,34.21508713,132.9519821
今治城,美術館・博物館,文化施設,今治市通町3丁目1番地3,https://www.city.imabari.ehime.jp/museum/,34.0633386,133.0067804
今治市上浦歴史民俗資料館　(村上三島記念館),美術館・博物館,文化施設,今治市上浦町井口7505番地,https://www.city.imabari.ehime.jp/museum/,34.25581481,133.0535086
今治市伊東豊雄建築ミュージアム,美術館・博物館,文化施設,今治市大三島町浦戸2418番地,https://www.city.imabari.ehime.jp/museum/,34.21392916,132.9503916
今治市大三島美術館,美術館・博物館,文化施設,今治市大三島町宮浦9099番地1,https://www.city.imabari.ehime.jp/museum/,34.2490789,133.0032442
今治市大西藤山歴史資料館,美術館・博物館,文化施設,今治市大西町宮脇乙579番地1,https://www.city.imabari.ehime.jp/museum/,34.05996029,132.9291654
今治市岩田健母と子のミュージアム,美術館・博物館,文化施設,今治市大三島町宗方5208番地2,https://www.city.imabari.ehime.jp/museum/,34.19446378,132.9540896
今治市朝倉ふるさと美術古墳館,美術館・博物館,文化施設,今治市朝倉下甲898番地,https://www.city.imabari.ehime.jp/museum/,33.99952743,133.0077372
今治市村上海賊ミュージアム,美術館・博物館,文化施設,今治市宮窪町宮窪1285番地,https://www.city.imabari.ehime.jp/museum/,34.16886867,133.0876193
今治市河野美術館,美術館・博物館,文化施設,今治市旭町1丁目4番地8,https://www.city.imabari.ehime.jp/museum/,34.0627616,132.9988728
今治市玉川近代美術館　(徳生記念館),美術館・博物館,文化施設,今治市玉川町大野甲86番地4,https://www.city.imabari.ehime.jp/museum/,34.0219484,132.9445724
今治市野間仁根バラのミュージアム（吉海郷土文化センター）,美術館・博物館,文化施設,今治市吉海町福田1290番地,https://www.city.imabari.ehime.jp/museum/,34.15502435,133.0426796
公益財団法人 愛媛文華館,美術館・博物館,文化施設,今治市黄金町2丁目6-2,https://www.city.imabari.ehime.jp/kanko/spot/?a=109,34.06440007,133.005103
大三島海事博物館（葉山丸記念館）,美術館・博物館,文化施設,今治市大三島町宮浦3327,https://www.city.imabari.ehime.jp/kanko/spot/?a=242,34.24776287,133.0045131
大山祇神社宝物館,美術館・博物館,文化施設,今治市大三島町宮浦3327,https://www.city.imabari.ehime.jp/kanko/spot/?a=228,34.2473746,133.0047879
しまなみ来島海峡遊覧船,自然景観,観光情報 / スポーツ・レクリエーション,今治市吉海町名4520-2,https://www.city.imabari.ehime.jp/kanko/spot/?a=181,34.12744096,133.0220204
ひょうたん島,自然景観,観光情報 / スポーツ・レクリエーション,今治市上浦町井口9179,https://www.city.imabari.ehime.jp/kanko/spot/?a=209,34.28429937,133.0501653
世田山,自然景観,観光情報 / スポーツ・レクリエーション,今治市朝倉上,https://www.city.imabari.ehime.jp/kanko/spot/?a=133,33.97769827,133.0414139
今治市玉川ふれあいの森　森林館,自然景観,観光情報 / スポーツ・レクリエーション,今治市玉川町鈍川庚730番地1,https://www.city.imabari.ehime.jp/kanko/spot/?a=147,33.97498279,132.9393484
入日の滝,自然景観,観光情報 / スポーツ・レクリエーション,今治市大三島町台,https://www.city.imabari.ehime.jp/kanko/spot/?a=232,34.23806502,133.0123176
別名の大楠,自然景観,観光情報 / スポーツ・レクリエーション,今治市別名526付近,https://www.city.imabari.ehime.jp/kanko/spot/?a=300,34.04427086,132.973525
医王池（蛇越池）の湿地植物,自然景観,観光情報 / スポーツ・レクリエーション,今治市孫兵衛作,https://www.city.imabari.ehime.jp/kanko/spot/?a=137,33.98155794,133.0565548
唐子浜の赤灯台,自然景観,観光情報 / スポーツ・レクリエーション,今治市古国分1丁目4,https://www.city.imabari.ehime.jp/kanko/spot/?a=129,34.0347437,133.0368323
山桃のこみち,自然景観,観光情報 / スポーツ・レクリエーション,今治市波方町宮崎,https://www.city.imabari.ehime.jp/kanko/spot/?a=163,34.11393403,132.9020195
志島ヶ原,自然景観,観光情報 / スポーツ・レクリエーション,今治市桜井6丁目2-1,https://www.city.imabari.ehime.jp/kanko/spot/?a=127,34.01957534,133.0435115
桜井海岸（唐子浜）,自然景観,観光情報 / スポーツ・レクリエーション,今治市古国分1丁目,https://www.city.imabari.ehime.jp/kanko/spot/?a=126,34.03031549,133.0389512
歌仙滝公園,自然景観,観光情報 / スポーツ・レクリエーション,今治市菊間町松尾996番地1,https://www.city.imabari.ehime.jp/kanko/spot/?a=172,34.02074187,132.8682817
沖浦ビーチ,自然景観,観光情報 / スポーツ・レクリエーション,今治市伯方木浦甲2407番地4,https://www.city.imabari.ehime.jp/kanko/spot/?a=205,34.19344238,133.1121934
玉川ダム（玉川湖）,自然景観,観光情報 / スポーツ・レクリエーション,今治市玉川町龍岡下丁,https://www.city.imabari.ehime.jp/kanko/spot/?a=154,33.99138676,132.9224934
生樹の御門,自然景観,観光情報 / スポーツ・レクリエーション,今治市大三島町宮浦,https://www.city.imabari.ehime.jp/kanko/spot/?a=239,34.2478454,133.0084621
能島,自然景観,観光情報 / スポーツ・レクリエーション,今治市宮窪町宮窪,https://www.city.imabari.ehime.jp/kanko/spot/?a=192,34.18217754,133.08086
能島水軍 潮流体験,自然景観,観光情報 / スポーツ・レクリエーション,今治市宮窪町宮窪,https://www.city.imabari.ehime.jp/kanko/spot/?a=188,34.16972762,133.0875153
鈍川渓谷,自然景観,観光情報 / スポーツ・レクリエーション,今治市玉川町鈍川,https://www.city.imabari.ehime.jp/kanko/spot/?a=149,33.97498279,132.9393484
鶏小島,自然景観,観光情報 / スポーツ・レクリエーション,今治市伯方町有津,https://www.city.imabari.ehime.jp/kanko/spot/?a=201,34.1921469,133.0808081
鷲ケ頭山自然研究路,自然景観,観光情報 / スポーツ・レクリエーション,今治市大三島町,https://www.city.imabari.ehime.jp/kanko/spot/?a=237,34.23912176,133.0213811
今治港,航路情報,観光情報,今治市片原町1丁目2,https://www.city.imabari.ehime.jp/kanko/access/imabari.html#access-tab02,34.0698909,133.0052358
佐島港,航路情報,観光情報,今治市越智郡上島町弓削佐島,https://www.city.imabari.ehime.jp/kanko/access/imabari.html#access-tab02,34.25390506,133.1877765
友浦港,航路情報,観光情報,今治市宮窪町友浦895番地2,https://www.city.imabari.ehime.jp/kanko/access/imabari.html#access-tab02,34.15290141,133.0819329
土生港,航路情報,観光情報,広島県尾道市因島土生町荒神区2579番地1,https://www.city.imabari.ehime.jp/kanko/access/imabari.html#access-tab02,34.28145074,133.1804556
大下港,航路情報,観光情報,今治市関前大下1930番地1,https://www.city.imabari.ehime.jp/kanko/access/imabari.html#access-tab02,34.18859549,132.9229599
宗方港,航路情報,観光情報,今治市大三島町宗方397番地,https://www.city.imabari.ehime.jp/kanko/access/imabari.html#access-tab02,34.20376502,132.9435023
宮窪港,航路情報,観光情報,今治市宮窪町宮窪2822番地11,https://www.city.imabari.ehime.jp/kanko/access/imabari.html#access-tab02,34.17480281,133.0775148
小大下港,航路情報,観光情報,今治市関前小大下甲2805番地,https://www.city.imabari.ehime.jp/kanko/access/imabari.html#access-tab02,34.19046039,132.8999521
小島港,航路情報,観光情報,今治市来島91番地先,https://www.city.imabari.ehime.jp/kanko/access/imabari.html#access-tab02,34.12294474,132.9765406
尾浦港,航路情報,観光情報,今治市伯方町木浦甲2783番地先,https://www.city.imabari.ehime.jp/kanko/access/imabari.html#access-tab02,34.19911154,133.1036182
岡村港,航路情報,観光情報,今治市関前岡村甲723-2外,https://www.city.imabari.ehime.jp/kanko/access/imabari.html#access-tab02,34.18457869,132.883887
岩城港,航路情報,観光情報,今治市越智郡上島町岩城1427番地2,https://www.city.imabari.ehime.jp/kanko/access/imabari.html#access-tab02,34.24529959,133.1473485
幸港,航路情報,観光情報,今治市吉海町幸新田,https://www.city.imabari.ehime.jp/kanko/access/imabari.html#access-tab02,34.14985236,133.0400916
弓削港,航路情報,観光情報,今治市越智郡上島町弓削下弓削1042,https://www.city.imabari.ehime.jp/kanko/access/imabari.html#access-tab02,34.25872864,133.2004013
木江港,航路情報,観光情報,今治市広島県豊田郡大崎上島町木江242番地5,https://www.city.imabari.ehime.jp/kanko/access/imabari.html#access-tab02,34.23322664,132.9167876
木浦港,航路情報,観光情報,今治市伯方町木浦甲4625番地1,https://www.city.imabari.ehime.jp/kanko/access/imabari.html#access-tab02,34.20523828,133.1188753
来島港,航路情報,観光情報,今治市来島564番地先,https://www.city.imabari.ehime.jp/kanko/access/imabari.html#access-tab02,34.11697099,132.9701701
波止浜港,航路情報,観光情報,今治市波止浜４丁目１,https://www.city.imabari.ehime.jp/kanko/access/imabari.html#access-tab02,34.10977919,132.9689593
津島港,航路情報,観光情報,今治市吉海町津島219番地先,https://www.city.imabari.ehime.jp/kanko/access/imabari.html#access-tab02,34.15393434,133.0059686
生名港,航路情報,観光情報,今治市越智郡上島町生名448番地2,https://www.city.imabari.ehime.jp/kanko/access/imabari.html#access-tab02,34.26626974,133.1859353
盛港,航路情報,観光情報,今治市上浦町盛3851番地1,https://www.city.imabari.ehime.jp/kanko/access/imabari.html#access-tab02,34.29353137,133.0278853
馬島港,航路情報,観光情報,今治市馬島甲1006番地先,https://www.city.imabari.ehime.jp/kanko/access/imabari.html#access-tab02,34.11655497,132.9904476
よしうみバラ公園,観光施設,観光情報,今治市吉海町福田1292番地,https://www.city.imabari.ehime.jp/kanko/spot/?a=176,34.15400541,133.0415056
よしうみローズ館,観光施設,観光情報,今治市吉海町福田1290,https://imabari-shimanami.jp/rose/,34.15481229,133.0419286
タオル美術館,観光施設,観光情報,今治市朝倉上甲2930,https://www.city.imabari.ehime.jp/kanko/spot/?a=138,33.96915534,133.0326789
テクスポート今治,観光施設,観光情報,今治市東門町5丁目14-3,https://www.city.imabari.ehime.jp/kanko/spot/?a=113,34.06132595,133.0161461
ドルフィンファームしまなみ,観光施設,観光情報,今治市伯方町叶浦1673,https://www.city.imabari.ehime.jp/kanko/spot/?a=274,34.20092761,133.0760074
マリンオアシスはかた,観光施設,観光情報,今治市伯方町叶浦甲1668-1,https://www.city.imabari.ehime.jp/kanko/spot/?a=200,34.20275739,133.0755169
今治市朝倉臼坂ふるさと交流館,観光施設,観光情報,今治市朝倉下甲977番地7,https://www.city.imabari.ehime.jp/kanko/spot/?a=140,34.00198032,133.0088128
今治市来島海峡展望館,観光施設,観光情報,今治市小浦町2丁目5番2号,https://www.city.imabari.ehime.jp/kanko/spot/?a=95,34.1142366,132.97778
今治市野間馬ハイランド,観光施設,観光情報,今治市野間甲8番地,http://www.imabari-nomauma.jp/,34.05956512,132.9532212
今治駅前観光インフォメーションセンター,観光施設,観光情報,今治市北宝来町2丁目,https://www.city.imabari.ehime.jp/kanko/spot/?a=1102,34.06481533,132.9934801
伯方塩業株式会社大三島工場,観光施設,観光情報,今治市大三島町台32,https://www.city.imabari.ehime.jp/kanko/spot/?a=236,34.24099147,132.9931857
大島石文化体験ツアー,観光施設,観光情報,今治市宮窪町余所国,https://www.city.imabari.ehime.jp/kanko/spot/?a=902,34.18085586,133.0646892
玉川湖畔の里,観光施設,観光情報,今治市玉川町龍岡下乙18番地1,https://www.city.imabari.ehime.jp/kanko/spot/?a=152,33.99275623,132.9142599
道の駅しまなみの駅御島,観光施設,観光情報,今治市大三島町宮浦3260番地,https://mishima-eki.jp/,34.24892696,133.0054671
道の駅よしうみいきいき館,観光施設,観光情報,今治市吉海町名4520-2,https://imabari-shimanami.jp/ikiiki/,34.12744096,133.0220204
道の駅今治湯ノ浦温泉,観光施設,観光情報,今治市長沢甲252番地2,https://www.yunoura.com/,33.99291644,133.0484664
道の駅伯方S・Cパーク,観光施設,観光情報,今治市伯方町叶浦甲1668-1,https://imabari-shimanami.jp/hakata/,34.20262856,133.0753642
道の駅多々羅しまなみ公園,観光施設,観光情報,今治市上浦町井口9180-2,https://imabari-shimanami.jp/tatara/,34.25416833,133.0540446
大下出張診療所,診療所,公共施設,今治市関前大下甲65番地3,https://www.city.imabari.ehime.jp/kenkou/kenkousuisin.html#sekizen,34.18862417,132.923038
小大下出張診療所,診療所,公共施設,今治市関前小大下甲2115番地1,https://www.city.imabari.ehime.jp/kenkou/kenkousuisin.html#sekizen,34.19035922,132.9012041
岡村診療所,診療所,公共施設,今治市関前岡村甲18番地2,https://www.city.imabari.ehime.jp/kenkou/kenkousuisin.html#sekizen,34.18509302,132.8850871
今治市適応指導教室　コスモスの家,適応指導教室,公共施設,今治市天保山町3丁目2番地1,https://www.city.imabari.ehime.jp/gakukyou/cosmos/,34.06449771,133.0121373